id,geo_point_2d,secteur,commune,antenne_mairie,adresse,perimetre_pave,type_dechet_code,type_dechet,type_conteneur_code,type_conteneur,volume_m3,marque,modele,modele_info_sup,type_avaloir,type_collecteur,nom_collecteur,etat,etat_info_sup,date_info_etat,date_instal_conteneur_sup,type_installation,date_renouvellement_materiel,x_longitude,y_latitude
997,"45.21446,5.78961",Nord-Est,Meylan,,25 Rue de Chenevière / Impasse du Tramier (dans logette),,VER,verre,CA,aérien,3.0,Citec,Cyclea,,,Prestataire,Lely,Bon,Citec_Cyclea_3_A_c,,2009-11-25,,,5.78961,45.214461
1035,"45.21677,5.79024",Nord-Est,Meylan,,Chemin de Maupertuis / Chemin de l'Hermitage,,VER,verre,CA,aérien,2.5,Citec,Cyclea,,,Prestataire,Lely,Usé,Citec_Cyclea_2.5_A_c,,15 mars 2010,,,5.790237,45.216768
1337,"45.21235,5.79234",Nord-Est,Meylan,,21/23 Allée des Frênes / Appart'City,,VER,verre,CA,aérien,2.5,Citec,Cyclea,,,Prestataire,Lely,,,,2019-11-18,Nouveau site de collecte,,5.7923441338412,45.212354333794
1006,"45.21719,5.80066",Nord-Est,Meylan,,Avenue des Quatre Chemins / Cimetière du Gamond (sur parking),,VER,verre,CA,aérien,4.0,Citec,Cyclea,,,Prestataire,Lely,Bon,Citec_Cyclea_4_A_c,,2009-11-25,,,5.800662,45.217192
992,"45.21127,5.78647",Nord-Est,Meylan,,Chemin de Bérivière (Place des Tuileaux côté logette),,VER,verre,CA,aérien,3.0,Citec,Cyclea,,,Prestataire,Lely,Bon,Citec_Cyclea_3_A_c,,2008,,,5.786472,45.211268
994,"45.21404,5.78583",Nord-Est,Meylan,,Chemin de Bérivière / Allée de la Roselière (à côté logette),,VER,verre,CA,aérien,3.0,Citec,Cyclea,,,Prestataire,Lely,Bon,Citec_Cyclea_3_A_c,,2009-11-25,,,5.78583,45.214035
995,"45.21278,5.7866",Nord-Est,Meylan,,Chemin de Bérivière / Rue Père Cohard (côté n°3),,VER,verre,CA,aérien,3.0,Citec,Cyclea,,,Prestataire,Lely,Bon,Citec_Cyclea_3_A_c,,2009-11-25,,,5.786602,45.212782
990,"45.20778,5.78501",Nord-Est,Meylan,,Chemin des Prèles / Chemin des Sétérées du Dessous (dans logette à côté hôtel Kyriad),,VER,verre,CA,aérien,1.5,Citec,Cyclea,,,Prestataire,Lely,Bon,Citec_Cyclea_1.5_A_c,,2009-11-25,,,5.785008,45.207776
1331,"45.20889,5.78458",Nord-Est,Meylan,,10 Chemin des Prêles,,VER,verre,CA,aérien,3.0,Citec,Cyclea,"Citec 3m3 Crochet, puce E7390482000028BE; gps ",,Prestataire,Lely,,,,2019-09-06,Nouveau site de collecte,,5.7845776628906,45.208887777055
1332,"45.21063,5.78903",Nord-Est,Meylan,,6 Chemin des Prés,,VER,verre,CA,aérien,3.0,Citec,Cyclea,"Citec 3m3 Crochet, puce ED300482000028C5, gps",,Prestataire,Lely,,,,2019-09-06,Nouveau site de collecte,,5.7890285934098,45.210633274279
991,"45.21059,5.78324",Nord-Est,Meylan,,Impasse des Verdiers,,VER,verre,CA,aérien,3.0,Citec,Cyclea,,,Prestataire,Lely,Bon,Citec_Cyclea_3_A_c,,2008,,,5.783237,45.210591
3177,"45.14997,5.72607",Sud,Echirolles,,7 Rue des Tropiques / Sud Galaxie,,EMB,emballages,CA,aérien,4.0,Biloba,Ecobois Neo,,,Régie,Métro,,,,2019-11-21,Nouveau site de collecte,,5.7260687948658,45.149974394955
2039,"45.07338,5.73098",Grand-Sud,Champ sur Drac,,Chemin du Boutey (face au n° 46),,CS,collecte sélective,CE,enterré,5.0,Sulo,?,"Bac Sulo 5m3 Kinshofer, puce DFC1078200000064",,Prestataire,Lely,Bon,,,,,2019-10-18,5.729899,45.073842
1290,"45.20171,5.83371",Nord-Est,Domène,,12-14 Avenue de la Gare / Rue des Alpes,,VER,verre,CA,aérien,3.0,UTPM,Ecobox,UTPM 3m3 Crochet,,Prestataire,Lely,Bon,Quadria_Linéance_3_A_c,,2018-05-29,Nouveau site de collecte,2018-06-22,5.833707,45.20171
773,"45.17247,5.75653",Nord-Est,Saint Martin d'Hères,,Avenue Potié / Rue Edmond Rostand (Parking devant Crèche Jeanne Labourbe) / Quartier Renaudie,,VER,verre,CA,aérien,3.0,Quadria,Linéance,,,Prestataire,Lely,Bon,Quadria_Lineance_3_A_c,,,,2017-12-14,5.756534,45.172471
1341,"45.14722,5.75897",Sud,Eybens,,38 Avenue de la République / Allée des Pervenches,,VER,verre,CA,aérien,3.0,Quadria,Linéance,,,Prestataire,Lely,,,,2019-11-28,Nouveau site de collecte,,5.7589681711959,45.147222539238
3174,"45.14891,5.72578",Sud,Echirolles,,2 Rue des Méridiens / Sud Galaxie,,EMB,emballages,CA,aérien,4.0,Biloba,Ecobois Neo,,,Régie,Métro,,,,2019-11-21,Nouveau site de collecte,,5.7257783971095,45.148907043067
806,"45.18009,5.75945",Nord-Est,Saint Martin d'Hères,,Place Karl Marx / Rue Jules Verne / Bibliothèque Paul Langevin,,VER,verre,CA,aérien,3.0,Quadria,Linéance,,,Prestataire,Lely,Bon,Citec_Cyclea_2.5_A_c,,,,2017-12-14,5.759454,45.180085
1215,"45.06909,5.76614",Grand-Sud,Vizille,,Parking Lycée / Gendarmerie / Avenue Pasteur,,VER,verre,CA,aérien,4.0,SNNECO,Eco-Bois,,,Prestataire,Lely,Sale,SNNECO_Eco-Bois_4_A_k,,,,,5.766142,45.069091
1203,"45.08796,5.77513",Grand-Sud,Vizille,,Collège Les Mattons (Gymnase) / Rue derrière gymnase,,VER,verre,CA,aérien,3.0,SNNECO,Eco-DI,,,Prestataire,Lely,Bon,SNNECO_Eco-DI_3_A_k,,,,,5.775133,45.087955
758,"45.16032,5.75662",Nord-Est,Saint Martin d'Hères,,Avenue Marcel Cachin / Rue Lénine,,VER,verre,CA,aérien,3.0,Citec,Cyclea,,,Prestataire,Lely,Bon,,,,,2017-12-14,5.756624,45.160318
1029,"45.17719,5.79238",Nord-Est,Venon,,Route départementale / Le Pied de Venon (plateforme de tri),,VER,verre,CA,aérien,4.0,Biloba,Ecobois Neo,,,Prestataire,Lely,Bon,SNNECO_EcoBois/EcoDI_4_A_c,,,,2019-03-07,5.792377,45.177195
230,"45.17883,5.78041",Nord-Est,Gières,,Rue Docteur Valois (RD 269) / Rue de la Roseraie,,VER,verre,CA,aérien,3.0,Quadria,Linéance,,,Prestataire,Lely,Bon,Citec_Cyclea_2.5_A_c,,,,2017-12-12,5.780406,45.178825
41,"45.20675,5.84702",Nord-Est,Domène,,1 Rue des Contamines / Parking Relais / Dépôt DDE,,VER,verre,CA,aérien,4.0,Citec,Islea,Citec 4m3 Isléa crochet,,Prestataire,Lely,Bon,Citec_Islea_4_A_c,,,,2018-02-09,5.847022,45.206754
769,"45.16727,5.76298",Nord-Est,Saint Martin d'Hères,,5 Avenue Romain Rolland / MJC,,VER,verre,CA,aérien,3.0,Quadria,Linéance,Quadria 3m3 crochet V1851A,,Prestataire,Lely,Bon,Citec_Cyclea_3_A_c,,,,2018-05-03,5.76298,45.167267
771,"45.16927,5.75952",Nord-Est,Saint Martin d'Hères,,5 Rue Garcia Lorca / Marché Chamberton (vers toilettes),,VER,verre,CA,aérien,4.0,Quadria,Linéance,Quadria 4m3 Crochet V2014A + Cliiink,,Prestataire,Lely,Bon,UTPM_Ecobox_3_A_c,,,,2019-01-25,5.759521,45.169274
772,"45.17205,5.75799",Nord-Est,Saint Martin d'Hères,,Rue Henri Wallon / Avenue Potié / Parking terminus tram Etienne Grappe,,VER,verre,CA,aérien,4.0,Quadria,Linéance,Quadria 4m3 Crochet V2016A + Cliiink,,Prestataire,Lely,Bon,Citec_Cyclea_3_A_c,,,,2019-01-25,5.757991,45.172054
6,"45.11305,5.67186",Grand-Sud,Claix,,17 Chemin de Risset / Déchèterie,,VER,verre,CA,aérien,3.0,UTPM,Ecobox,,,Prestataire,Lely,Usé,UTPM_Ecobox_3_A_c,,,,???,5.671862,45.113054
1081,"45.18605,5.77165",Nord-Est,Saint Martin d'Hères,,5 Rue du Tour de l'Eau / Résidence Matisse / Rue Joseph Fourier / Entrée CSTB,,VER,verre,CA,aérien,4.0,Quadria,Linéance,Quadria 4m3 Crochet V2022A + Cliiink,,Prestataire,Lely,Bon,UTPM_Ecobox_3_A_c,,2013 (mai),,2019-01-25,5.771647,45.186051
1326,"45.21275,5.76829",Nord-Est,Meylan,,Chemin des Sayettes (face au n° 40),,VER,verre,CA,aérien,3.0,Quadria,Linéance,"Quadria Linéance 3m3 crochet V2055A, puce",,Prestataire,Lely,,,,2019-06-05,Nouveau site de collecte,,5.7682902948778,45.212749138459
1132,"45.08434,5.73486",Grand-Sud,Champ sur Drac,,Parking PL (poids lourds) / Avenue Jean Navarre / Rue Henri Barbusse,,VER,verre,CA,aérien,3.0,SNNECO,Eco-DI,,,Prestataire,Lely,Bon,SNNECO_Eco-DI_3_A_k,,,,,5.734863,45.084337
1139,"45.08002,5.73582",Grand-Sud,Champ sur Drac,,Pavillon (parking derrière la Poste) / Rue de Verdun,,VER,verre,CE,enterré,0.0,Citec,,,,Prestataire,Lely,Bon,Citec__0_E_k,,,,,5.735819,45.080016
1237,"45.18721,5.77525",Nord-Est,Saint Martin d'Hères,,19 rue du Tour de l'Eau / Résidence étudiante Le Bissy,,VER,verre,CA,aérien,3.0,UTPM,Ecobox,Citec 3m3 Crochet + Cliiink,,Prestataire,Lely,Bon,UTPM_Ecobox_3_A_c,,2015-11-25,,2019-01-25,5.775246,45.187213
819,"45.19398,5.75655",Nord-Est,Saint Martin d'Hères,,Rue des Taillées / Rue Antoine Polotti (No Name Café),,VER,verre,CA,aérien,4.0,Quadria,Linéance,Quadria Linéance 4m3 Crochet V2024A + Cliiink,,Prestataire,Lely,Bon,Citec_Cyclea_3_A_c,,Citec_Cyclea_4_A_c,,2019-05-06,5.756555,45.193978
897,"45.17646,5.6868",Nord-Ouest,Seyssinet Pariset,,Avenue du Vercors / Rue de la Résistance / Résidence Belvedère,,VER,verre,CA,aérien,3.0,Quadria,Linéance,Quadria 3m3 crochet N°V1823A,,Prestataire,Lely,Bon,Citec_Cyclea_4_A_c,,,,2018-02-09,5.686799,45.176462
713,"45.15871,5.75697",Sud,Poisat,,Esplanande du 8 mai 1945 / 9-11 Rue Claude Debussy / Rue Hector Berlioz,,VER,verre,CA,aérien,3.0,Quadria,Linéance,Quadria 3m3 crochet,,Prestataire,Lely,Bon,Citec_Cyclea_3_A_c,,,,2017-10-23,5.756971,45.158711
872,"45.18008,5.68756",Nord-Ouest,Seyssinet Pariset,,Avenue du Vercors / Rue du Moucherotte,,VER,verre,CA,aérien,3.0,Quadria,Linéance,Quadria 3m3 crochet N°V1820A,,Prestataire,Lely,Bon,EcoVert_Inconnu_2.5_A_c,,,,2018-02-09,5.687564,45.180083
47,"45.1571,5.72886",Sud,Echirolles,,Rue Jean Vilar / Rue d'Alsace / Face Hôtel,,VER,verre,CA,aérien,3.0,Quadria,Linéance,Quadria 3m3 crochet V1869A,,Prestataire,Lely,Bon,UTPM_Ecobox_3_A_c,,,,2018-10-30,5.728857,45.157103
113,"45.14359,5.69872",Sud,Echirolles,,13 Rue de Vassieux / 40 Rue des Grottes de la Luire,,VER,verre,CE,enterré,4.0,Citec,,Citec 4m3 Kinshofer,,Prestataire,Lely,Bon,Citec__4_E_k,,,,2018-09-24,5.698717,45.143588
151,"45.16608,5.74288",Sud,Eybens,,10 Rue Galilée,,VER,verre,CA,aérien,3.0,UTPM,Ecobox,UTPM 3m3 Crochet,,Prestataire,Lely,Bon,Citec_Cyclea_2.5_A_c,,,,2017-12-13 /// 2019-01-15,5.742882,45.166076
871,"45.17094,5.69452",Nord-Ouest,Seyssinet Pariset,,Av de Grenoble / Av Victor Hugo,,VER,verre,CA,aérien,3.0,Quadria,Linéance,Quadria 3m3 crochet V1772A,,Prestataire,Lely,Bon,EcoVert__2.5_A_c,,,,2018-07-04,5.694518,45.170943
14,"45.13293,5.66689",Grand-Sud,Claix,,2 Chemin de l'Abbé / Groupe scolaire de Malhivert,,VER,verre,CA,aérien,3.0,UTPM,Ecobox,matériel neuf : non,,Prestataire,Lely,Sale,UTPM_Ecobox_3_A_c,,,,2018-09-12,5.666895,45.132934
13,"45.1189,5.67066",Grand-Sud,Claix,,Place du Champ de Foire,,VER,verre,CA,aérien,3.0,UTPM,Ecobox,,,Prestataire,Lely,Sale,UTPM_Ecobox_3_A_c,,,,,5.670659,45.118902
3071,"45.04465,5.8255",Grand-Sud,Saint Barthélémy de Séchilienne,,Village (pont) / Les Ruines,,EMB,emballages,CA,aérien,4.0,SNNECO,Eco-DI,,,Prestataire,Lely,Sale,,,,,,5.825504,45.044646
1071,"45.12565,5.68102",Grand-Sud,Claix,,Rue de la Balme / Allée du Gros Chêne / dans logette à côté transfo,,VER,verre,CA,aérien,3.0,UTPM,Ecobox,,,Prestataire,Lely,Sale,UTPM_Ecobox_3_A_c,,2012 (mai),,,5.681017,45.12565
59,"45.1543,5.71237",Sud,Echirolles,,Avenue Victor Hugo / Rue Fernand Pelloutier,,VER,verre,CA,aérien,3.0,EcoVert,Inconnu,Citec 4m3,,Prestataire,Lely,Sale,EcoVert_Inconnu_3_A_c,,,,2018-02-09,5.712372,45.154295
79,"45.13957,5.72121",Sud,Echirolles,,Halle Vieux Village / Place Baille Barelle / Avenue de la République / Parc Robert Buisson (Frange Verte),,VER,verre,CA,aérien,2.5,Quadria,Linéance,Quadria 4m3 crochet V1840A,,Prestataire,Lely,Sale,EcoVert_Inconnu_2.5_A_c,,,,2018-03-16,5.721206,45.139573
160,"45.15556,5.75747",Sud,Eybens,,Rue des Rosiers / Avenu de Champ Fila,,VER,verre,CA,aérien,2.5,Citec,Cyclea,Citec 2m3 crochet,,Prestataire,Lely,Bon,Citec_Cyclea_2.5_A_c,,,,2018-01-30,5.757473,45.155564
179,"45.19336,5.67935",Nord-Ouest,Fontaine,,Rue Eugène Charbonnier / Rue du Moucherotte / Ecole maternelle Maurice Audin,,VER,verre,CA,aérien,4.0,Quadria,Linéance,Quadria 4m3 crochet V1932A,,Prestataire,Lely,Bon,UTPM_PV400_4_A_c,,,,2018-11-07,5.679351,45.193356
926,"45.08464,5.68162",Grand-Sud,Varces Allières et Risset,,7 Avenue de Provence / Déchèterie,,VER,verre,CA,aérien,3.0,UTPM,Ecobox,,,Prestataire,Lely,Sale,UTPM_Ecobox_3_A_c,,,,,5.681621,45.084639
182,"45.1948,5.69288",Nord-Ouest,Fontaine,,3-7 Mail Marcel Cachin,,VER,verre,CA,aérien,3.0,Quadria,Linéance,Quadria 3m3 crochet V1820A,,Prestataire,Lely,Bon,UTPM_PV400_4_A_c,,,,2018-11-07,5.692885,45.194797
1169,"45.04996,5.70771",Grand-Sud,Saint Georges de Commiers,,Les Isles / 870-1230 Rues des Isles,,VER,verre,CE,enterré,0.0,Astech,,,,Prestataire,Lely,Bon,Astech__0_E_k,,,,2016-03,5.707711,45.049961
180,"45.1954,5.6877",Nord-Ouest,Fontaine,,38 Mail Marcel Cachin / Ensemble sportif / Maison du Temps Libre,,VER,verre,CA,aérien,3.0,Quadria,Linéance,Quadria 3m3 crochet V1874A,,Prestataire,Lely,Bon,Citec_Cyclea_2.5_A_c,,,,2018-11-07,5.687696,45.195404
2079,"45.05334,5.76046",Grand-Sud,Saint Pierre de Mésage,,Les Peyrauds / Rue de l'Oratoire / Montée de la Rhine,,PAP,papier,CA,aérien,4.0,SNNECO,Eco-DI,,,Prestataire,Lely,Sale,,,,,,5.760469,45.053333
2083,"45.05454,5.82718",Grand-Sud,Séchilienne,,Le Grand Serre (lotissement),,PAP,papier,CA,aérien,4.0,SNNECO,Eco-DI,,,Prestataire,Lely,Sale,,,,,,5.827189,45.054516
2082,"45.05478,5.79423",Grand-Sud,Séchilienne,,Les Rivoirans,,PAP,papier,CA,aérien,4.0,SNNECO,Eco-DI,,,Prestataire,Lely,Sale,,,,,,5.794243,45.054781
1064,"45.11222,5.68162",Grand-Sud,Claix,,16 Rue de l'Industrie / Commerce produits fermiers / ZI des Bauches,,VER,verre,CA,aérien,4.0,SNNECO,Eco-DI/Eco-Bois,,,Prestataire,Lely,Bon,SNNECO_Ecobois/EcoDI_4_A_c,,2012 (janvier),,,5.681624,45.112223
2089,"45.10087,5.80191",Grand-Sud,Vaulnaveys le Bas,,Camping L'Imprévu (parking accueil) / 62 Chemin des Molières,,PAP,papier,CA,aérien,4.0,SNNECO,Eco-Bois,,,Prestataire,Lely,Sale,,,,,,5.801913,45.100867
2090,"45.09385,5.79402",Grand-Sud,Vaulnaveys le Bas,,Le Plâtre / IDF / 49 Chemin des Cottes,,PAP,papier,CA,aérien,4.0,SNNECO,Eco-DI,,,Prestataire,Lely,Sale,,,,,,5.794037,45.093862
1342,"45.1454,5.76133",Sud,Eybens,,71 Rue des Pellets,,VER,verre,CA,aérien,3.0,Citec,Cyclea,,,Prestataire,Lely,,,,2019-11-28,Nouveau site de collecte,,5.7613285455901,45.145403405892
3119,"45.0713,5.76453",Grand-Sud,Vizille,,ZA Messidor / Carrefour Market / 172 Rue Messidor,,EMB,emballages,CA,aérien,4.0,SNNECO,Eco-DI,,,Prestataire,Lely,Sale,,,,,,5.764529,45.071299
1277,"45.01781,5.64329",Grand-Sud,Le Gua,,17-19 Rue de la Blacharde,,VER,verre,CA,aérien,0.0,-,,,,Prestataire,Lely,Bon,__0_A_,,2018-03,Colonne installée en novembre 2017 mais intégrée dans la BDD en mars 2018 (comptabilisée dans reporting 2018),,5.64329,45.01781
552,"45.02493,5.64601",Grand-Sud,Le Gua,,Les Saillants / Avenue du Vercors (vers n° 21 - Café des Voyageurs - face tabac-presse) / Place du Centre,,VER,verre,CA,aérien,4.2,Citec,Cyclea Max,,,Prestataire,Lely,Bon,Citec_Cyclea Max_4.2_A_c,,,,,5.646008,45.024933
588,"45.14043,5.70333",Grand-Sud,Le Pont de Claix,,104 Cours Saint André (limite Echirolles) / Restaurant Courtepaille,,VER,verre,CA,aérien,3.0,Citec,Cyclea,,,Prestataire,Lely,Sale,Citec_Cyclea_3_A_c,,,,,5.703332,45.140434
581,"45.13029,5.69725",Grand-Sud,Le Pont de Claix,,2-4 Avenue des Iles de Mars / entrée collège,,VER,verre,CA,aérien,2.5,Quadria,Linéance,,,Prestataire,Lely,Bon,Citec_Cyclea_2.5_A_c,,,,,5.697247,45.13029
564,"45.12675,5.69864",Grand-Sud,Le Pont de Claix,,26-30 Cours Saint André / Rue Marcelline,,VER,verre,CA,aérien,2.5,Quadria,Linéance,,,Prestataire,Lely,Bon,Citec_Cyclea_2.5_A_c,,,,,5.698641,45.126752
568,"45.1238,5.69701",Grand-Sud,Le Pont de Claix,,3 Rue Franz Schubert,,VER,verre,CA,aérien,4.0,Quadria,Linéance,,,Prestataire,Lely,Sale,Citec_Cyclea_4_A_c,,,,,5.697012,45.123802
563,"45.12839,5.69886",Grand-Sud,Le Pont de Claix,,45 Cours Saint André / Résidence Joliot Curie / proximité CCAS,,VER,verre,CA,aérien,2.5,Quadria,Linéance,,,Prestataire,Lely,Bon,Citec_Cyclea_2.5_A_c,,,,,5.698863,45.128391
560,"45.13097,5.70007",Grand-Sud,Le Pont de Claix,,60 Cours Saint André,,VER,verre,CA,aérien,2.5,Quadria,Linéance,,,Prestataire,Lely,Bon,Citec_Cyclea_2.5_A_c,,,,,5.700073,45.130966
554,"45.13444,5.70124",Grand-Sud,Le Pont de Claix,,70 Cours Saint André / Supermarché Dia,,VER,verre,CA,aérien,4.0,Quadria,Linéance,,,Prestataire,Lely,Bon,Citec_Cyclea_2.5_A_c,,,,2019-01-21,5.701245,45.134443
555,"45.13565,5.70121",Grand-Sud,Le Pont de Claix,,71-73 Cours Saint André (Résidence Saint André),,VER,verre,CA,aérien,4.0,Quadria,Linéance,,,Prestataire,Lely,Bon,Citec_Cyclea_4_A_c,,,,2019-01-21,5.701209,45.135655
1021,"45.22426,5.78916",Nord-Est,Meylan,,12-16 Chemin de Jaillères / terrains de tennis,,VER,verre,CA,aérien,2.5,Citec,Cyclea,,,Prestataire,Lely,Bon,Citec_Cyclea_2.5_A_c,,2009 août 12,,,5.789162,45.224258
558,"45.13218,5.69747",Grand-Sud,Le Pont de Claix,,7-9 Rue Stendhal,,VER,verre,CA,aérien,3.0,Quadria,Linéance,,,Prestataire,Lely,Bon,Citec_Cyclea_2.5_A_c,,,,2019-01-21,5.697468,45.132183
585,"45.13566,5.69993",Grand-Sud,Le Pont de Claix,,AFPA - CFPA / 38 Avenue Victor Hugo / Bâtiment 13 (à l'intérieur du domaine),,VER,verre,CA,aérien,3.0,Citec,Cyclea,Citec Cycléa 3m3 crochet,,Prestataire,Lely,Bon,Inconnue_Inconnu_3_A_c,,,,2018-10-19,5.699933,45.135659
556,"45.13421,5.69938",Grand-Sud,Le Pont de Claix,,Allée Albert Camus (vers n° 9) / Olympiades,,VER,verre,CA,aérien,4.0,Quadria,Linéance,,,Prestataire,Lely,Bon,Citec_Cyclea_2.5_A_c,,,,2019-01-21,5.699378,45.13421
1054,"45.13211,5.69258",Grand-Sud,Le Pont de Claix,,Complexe sportif Louis Maisonnat / Rue Louis Maisonnat / Rue Aristide Bergès / ZI des Iles,,VER,verre,CA,aérien,3.0,Citec,Cyclea,,,Prestataire,Lely,Bon,Citec_Cyclea_3_A_c,,,,,5.692581,45.132114
574,"45.12027,5.70157",Grand-Sud,Le Pont de Claix,,Déchèterie / 43 Avenue du Maquis de l'Oisans / Eglise,,VER,verre,CA,aérien,3.0,SNNECO,Eco-Bois,"Citec_Cyclea Max_c_4,2_A_till_????-??-??",,Prestataire,Lely,Sale,Citec_Cyclea Max_4.2_A_c,,,,,5.70157,45.120269
571,"45.12309,5.69899",Grand-Sud,Le Pont de Claix,,Place Salvador Allende / Parking,,VER,verre,CA,aérien,2.5,Quadria,Linéance,,,Prestataire,Lely,Sale,Citec_Cyclea_2.5_A_c,,,,,5.698992,45.123092
924,"45.10657,5.6727",Grand-Sud,Varces Allières et Risset,,3 Rue de la Pissarde / Le Risset / Cimetière / Chapelle,,VER,verre,CA,aérien,4.0,Citec,Cyclea,,,Prestataire,Lely,Sale,Citec_Cyclea_4_A_c,,,,2014-07-03,5.672696,45.106565
569,"45.12327,5.69628",Grand-Sud,Le Pont de Claix,,Rue Benoît Jay / Ecole Jules Verne (parking devant école),,VER,verre,CA,aérien,2.5,Quadria,Linéance,,,Prestataire,Lely,Bon,Citec_Cyclea_2.5_A_c,,,,,5.696284,45.123266
1133,"45.08475,5.72949",Grand-Sud,Champ sur Drac,,La Chêneraie (parking) / Allée de la Chêneraie,,VER,verre,CA,aérien,4.0,SNNECO,Eco-Bois,,,Prestataire,Lely,Bon,SNNECO_Eco-Bois_4_A_k,,,,,5.729489,45.084753
1300,"44.98401,5.62414",Grand-Sud,Miribel Lanchâtre,,Chemin de Miribel - Queue Longue,,VER,verre,CA,aérien,4.0,Quadria,Linéance,Quadria n°V1835A 4m3 crochet,,Prestataire,Lely,Bon,Quadria_Linéance_4_A_c,,2018-09-18,Nouveau site de collecte,2018-12-13,5.624139,44.984015
1170,"45.04555,5.70801",Grand-Sud,Saint Georges de Commiers,,EHPAD / Lotissement Balcons des Condamines / Rue des Tillerets / Impasse de la Frênaie,,VER,verre,CE,enterré,0.0,Astech,,,,Prestataire,Lely,Bon,Astech__0_E_k,,,,,5.708009,45.045545
1172,"45.03958,5.70123",Grand-Sud,Saint Georges de Commiers,,Mairie / Stade / Gymnase des Combettes / 1 Rue de la Mairie,,VER,verre,CE,enterré,0.0,Citec,,,,Prestataire,Lely,Bon,Citec__0_E_k,,,,,5.701234,45.039578
917,"45.08711,5.68563",Grand-Sud,Varces Allières et Risset,,28 Rue Léo Lagrange / Pompiers,,VER,verre,CA,aérien,3.0,EcoVert,Inconnu,,,Prestataire,Lely,Bon,EcoVert_Inconnu_3_A_c,,,,,5.685625,45.087109
1171,"45.04349,5.70117",Grand-Sud,Saint Georges de Commiers,,Parking ancienne poste / 455 Montée de la Peyrela,,VER,verre,CE,enterré,0.0,Citec,,,,Prestataire,Lely,Bon,Citec__0_E_k,,,,,5.70117,45.043488
529,"45.20459,5.74745",Nord-Est,La Tronche,,Rue du Pont Bottu (côté borne incendie),,VER,verre,CA,aérien,3.0,Citec,Cyclea,,,Prestataire,Lely,Bon,Citec_Cyclea_3_A_c,,,,,5.747449,45.204585
212,"45.24548,5.65771",Nord-Ouest,Fontanil Cornillon,,8 Avenue de la Louisiane / Hotel Kyriad (parking intérieur derrière hôtel - côté cuisines) / Zone Industrielle,,VER,verre,CA,aérien,2.5,Citec,Cyclea,,,Prestataire,Lely,Bon,Citec_Cyclea_2.5_A_c,,,,,5.657712,45.245483
3109,"45.0828,5.77701",Grand-Sud,Vizille,,Cimetière / Chemin du Cimetière,,EMB,emballages,CA,aérien,4.0,SNNECO,Eco-DI,,,Prestataire,Lely,Bon,,,,,,5.777008,45.082802
2105,"45.08278,5.777",Grand-Sud,Vizille,,Cimetière / Chemin du Cimetière,,PAP,papier,CA,aérien,4.0,SNNECO,Eco-DI,,,Prestataire,Lely,Bon,,,,,,5.777001,45.082747
2102,"45.08581,5.77616",Grand-Sud,Vizille,,Collège Les Mattons (Cuisines cantine) / 396 Avenue de Vénaria,,PAP,papier,CA,aérien,5.0,SNNECO,Eco-Bois,,,Prestataire,Lely,Bon,,,,,,5.776189,45.085818
3105,"45.0879,5.7751",Grand-Sud,Vizille,,Collège Les Mattons (Gymnase) / Rue derrière gymnase,,EMB,emballages,CA,aérien,4.0,SNNECO,Eco-DI,,,Prestataire,Lely,Bon,,,,,,5.775096,45.087903
2101,"45.08792,5.77512",Grand-Sud,Vizille,,Collège Les Mattons (Gymnase) / Rue derrière gymnase,,PAP,papier,CA,aérien,5.0,SNNECO,Eco-Bois,,,Prestataire,Lely,Bon,,,,,,5.775133,45.087955
715,"45.15807,5.75993",Sud,Poisat,,9 Avenue Pierre Mendès France / Centre socio-culturel,,VER,verre,CA,aérien,4.0,Quadria,Linéance,Quadria 4m3 crochet,,Prestataire,Lely,Bon,Citec_Cyclea_4_A_c,,,,2017-12-13,5.75993,45.158073
3118,"45.07363,5.77284",Grand-Sud,Vizille,,Ecole du Château (parking devant école) / Rue Emile Cros,,EMB,emballages,CA,aérien,4.0,SNNECO,Eco-DI,,,Prestataire,Lely,Sale,,,,,,5.77284,45.073634
2123,"45.05531,5.77763",Grand-Sud,Vizille,,Ecole Paul Langevin (Péage de Vizille) / 441 Rue Paul Langevin,,PAP,papier,CA,aérien,5.0,SNNECO,Eco-Bois,,,Prestataire,Lely,Sale,,,,,,5.777642,45.055298
3108,"45.0822,5.77378",Grand-Sud,Vizille,,EHPAD / 218 Chemin des Mattons,,EMB,emballages,CA,aérien,5.0,SNNECO,Eco-Bois,,,Prestataire,Lely,Bon,,,,,,5.77378,45.082198
2104,"45.0822,5.77381",Grand-Sud,Vizille,,EHPAD / 218 Chemin des Mattons,,PAP,papier,CA,aérien,5.0,SNNECO,Eco-Bois,,,Prestataire,Lely,Bon,,,,,,5.773835,45.082203
551,"45.02047,5.6494",Grand-Sud,Le Gua,,Les Saillants / Boulodrome / Tennis / Ecole élémentaire le Bruyant,,VER,verre,CA,aérien,4.0,SNNECO,Eco-Bois,SNN Eco 4m3 à crochet,,Prestataire,Lely,Bon,SNNEco_Eco-Bois_4_A_c,,,,2017-05-18,5.649402,45.020467
923,"45.10483,5.68267",Grand-Sud,Varces Allières et Risset,,39 Route du Pavillon,,VER,verre,CA,aérien,3.0,Citec,Islea,Citec 3m3 Isléa,,Prestataire,Lely,Bon,Citec_Islea_3_A_c,,,,2017-05-18,5.682667,45.104829
553,"45.01691,5.61346",Grand-Sud,Le Gua,,Prélenfrey / Eglise,,VER,verre,CA,aérien,4.0,Citec,Cyclea,,,Prestataire,Lely,Bon,Citec_Cyclea_3_A_c,,,,????-??-?? (2017-07-24 ?),5.613464,45.016907
1176,"45.05053,5.76414",Grand-Sud,Saint Pierre de Mésage,,Place de l'Eglise,,VER,verre,CA,aérien,2.5,Citec,Cyclea,,,Prestataire,Lely,Sale,Citec_Cyclea_2.5_A_c,,,,,5.764143,45.050527
1174,"45.02844,5.7064",Grand-Sud,Saint Georges de Commiers,,Saint Pierre / Parking Eglise,,VER,verre,CE,enterré,0.0,Citec,,,,Prestataire,Lely,Bon,Citec__0_E_k,,,,,5.706404,45.028444
841,"45.07244,5.66137",Grand-Sud,Saint Paul de Varces,,Déchèterie / 249 Chemin de la Carrière / Les Tapaux,,VER,verre,CA,aérien,3.0,UTPM,PV387,,,Prestataire,Lely,Bon,UTPM_PV387_3_A_c,,,,,5.661372,45.072437
1175,"45.05333,5.76047",Grand-Sud,Saint Pierre de Mésage,,Les Peyrauds / Rue de l'Oratoire / Montée de la Rhine,,VER,verre,CA,aérien,3.0,SNNECO,Eco-DI,,,Prestataire,Lely,Sale,SNNECO_Eco-DI_3_A_k,,,,,5.760469,45.053333
2048,"45.11627,5.75764",Grand-Sud,Jarrie,,Ecole Louvarou (Haute Jarrie) / 20 Rue de la Bascule,,PAP,papier,CA,aérien,1.0,SNNECO,Eco-Bois,,,Prestataire,Lely,Bon,,,,,,5.75764,45.116266
1051,"45.08598,5.67758",Grand-Sud,Varces Allières et Risset,,48 rue du Vercors (à 50 mètres du n°48 en direction de St Paul de Varces),,VER,verre,CA,aérien,3.0,UTPM,Ecobox,,,Prestataire,Lely,Bon,UTPM_Ecobox_3_A_c,,,,2015-09-22,5.677581,45.085977
929,"45.09816,5.68431",Grand-Sud,Varces Allières et Risset,,Route D 1075 / Le Petit Rochefort / Scierie Nier,,VER,verre,CA,aérien,2.5,Citec,Cyclea,,,Prestataire,Lely,Bon,Citec_Cyclea_2.5_A_c,,,,,5.684306,45.098163
1211,"45.07752,5.77073",Grand-Sud,Vizille,,Piscine / Rue Argoud,,VER,verre,CA,aérien,4.0,SNNECO,Eco-Bois,,,Prestataire,Lely,Bon,SNNECO_Eco-Bois_4_A_k,,,,,5.770734,45.077519
1052,"45.08971,5.66834",Grand-Sud,Varces Allières et Risset,,Route du Martinais d'en Haut,,VER,verre,CA,aérien,3.0,Citec,Cyclea,,,Prestataire,Lely,Bon,Citec_Cyclea_3_A_c,,2011 mai,,,5.668337,45.089711
928,"45.08958,5.68136",Grand-Sud,Varces Allières et Risset,,Rue Charles Beylier / Face au kiosque du Parc Beylier / vers rond-point de l'école,,VER,verre,CA,aérien,3.0,Quadria,Linéance,,,Prestataire,Lely,Bon,UTPM_Ecobox_3_A_c,,,,2012 (décembre),5.681358,45.089582
918,"45.08675,5.68847",Grand-Sud,Varces Allières et Risset,,Rue Léo Lagrange (au niveau du pont / côté rue de la Passerelle),,VER,verre,CA,aérien,3.0,EcoVert,Inconnu,,,Prestataire,Lely,Bon,EcoVert_Inconnu_3_A_c,,,,,5.688469,45.086746
930,"45.08888,5.68377",Grand-Sud,Varces Allières et Risset,,Salle de spectacle l'Oriel / Avenue Joliot Curie / Espace Charles de Gaulle,,VER,verre,CA,aérien,2.5,Citec,Cyclea,,,Prestataire,Lely,Bon,Citec_Cyclea_2.5_A_c,,,,,5.683774,45.088882
1188,"45.10089,5.80193",Grand-Sud,Vaulnaveys le Bas,,Camping L'Imprévu (parking accueil) / 62 Chemin des Molières,,VER,verre,CA,aérien,4.0,SNNECO,Eco-Bois,,,Prestataire,Lely,Sale,SNNECO_Eco-Bois_4_A_k,,,,,5.801925,45.100889
1189,"45.09386,5.79404",Grand-Sud,Vaulnaveys le Bas,,Le Plâtre / IDF / 49 Chemin des Cottes,,VER,verre,CA,aérien,3.0,SNNECO,Eco-DI,,,Prestataire,Lely,Sale,SNNECO_Eco-DI_3_A_k,,,,,5.794037,45.093862
526,"45.20691,5.74391",Nord-Est,La Tronche,,32 Grande Rue (Parc Chevi),,VER,verre,CA,aérien,2.5,Citec,,,,Prestataire,Lely,Bon,Citec__2.5_A_c,,,,,5.743907,45.206908
922,"45.09747,5.68254",Grand-Sud,Varces Allières et Risset,,Rue de l'Industrie / Parking Intermarché,,VER,verre,CA,aérien,4.0,Quadria,Linéance,Quadria 4m3 crochet V1930A,,Prestataire,Lely,Bon,UTPM_Ecobox_2_A_c,,,,2018-10-31,5.682541,45.097471
3103,"45.08524,5.77116",Grand-Sud,Vizille,,Julian Grimaud / Avenue de Vénaria / Rue Julian Grimaud,,EMB,emballages,CA,aérien,4.0,SNNECO,Eco-DI,,,Prestataire,Lely,Bon,,,,,,5.77116,45.085239
2100,"45.08524,5.77116",Grand-Sud,Vizille,,Julian Grimaud / Avenue de Vénaria / Rue Julian Grimaud,,PAP,papier,CA,aérien,4.0,SNNECO,Eco-Bois,,,Prestataire,Lely,Bon,,,,,,5.771161,45.08525
31,"45.20102,5.84081",Nord-Est,Domène,,Route de Revel / Place Amable Matussière,,VER,verre,CA,aérien,3.0,Citec,Cyclea,,,Prestataire,Lely,Bon,Citec_Cyclea_3_A_c,,,,,5.840815,45.201024
1091,"45.0959,5.67668",Grand-Sud,Varces Allières et Risset,,Rue des Saules / Eco-Quartier de la Giraudière,,VER,verre,CA,aérien,4.0,Quadria,Linéance,Quadria Linéance 4m3 crochet V1936A,,Prestataire,Lely,Bon,UTPM_Ecobox_4_A_c,,2014-11-03,matériel neuf au 2014-11-03,2018-12-11,5.676681,45.095902
2095,"45.12203,5.80428",Grand-Sud,Vaulnaveys le Haut,,Déchèterie / Mas des Bessins / Route D5E,,PAP,papier,CA,aérien,4.0,UTPM,Ecobox,,,Prestataire,Lely,,,,,,,5.80428,45.122033
1195,"45.12211,5.80429",Grand-Sud,Vaulnaveys le Haut,,Déchèterie / Mas des Bessins / Route D5E,,VER,verre,CA,aérien,4.0,Quadria,Cuba Bois,"Citec_Cyclea_2,5_c_A_till_????-??-??",,Prestataire,Lely,Bon,Citec_Cyclea_2.5_A_c,,,,,5.804285,45.122109
3037,"45.08164,5.74065",Grand-Sud,Champ sur Drac,,Déchèterie / Rue Léo Lagrange,,CS,collecte sélective,CA,aérien,4.0,SNNECO,Eco-DI,,,Prestataire,Lely,Bon,,,aaaaaaaaaa,,,5.740652,45.081638
1187,"45.10145,5.79586",Grand-Sud,Vaulnaveys le Bas,,Les Peillets (marbrier) / 160 Promenade de la Lavée,,VER,verre,CA,aérien,4.0,SNNECO,Eco-Bois,,,Prestataire,Lely,Sale,SNNECO_Eco-Bois_4_A_k,,,,,5.795863,45.101447
3039,"45.07997,5.7358",Grand-Sud,Champ sur Drac,,Pavillon (parking derrière la Poste) / Rue de Verdun,,CS,collecte sélective,CE,enterré,0.0,Citec,?,,,Prestataire,Lely,Bon,,,,,,5.735801,45.079974
3136,"45.26008,5.77618",Nord-Est,Le Sappey en Chartreuse,,La Virette / Camping / Ecole / Place des Justes,,EMB,emballages,CA,aérien,4.0,STCM,Polytri,,,Prestataire,Lely,Bon,,,2016-09-01,Colonne Emballages supplémentaire,,5.776177,45.260076
2011,"45.26004,5.77623",Nord-Est,Le Sappey en Chartreuse,,La Virette / Camping / Ecole / Place des Justes,,PAP,papier,CA,aérien,4.0,SNNECO,Eco-Bois,,,Prestataire,Lely,Bon,,,,,,5.77628,45.260025
2007,"45.25461,5.77104",Nord-Est,Le Sappey en Chartreuse,,Le Gouillat / Route du Col de Porte (Route D512),,PAP,papier,CA,aérien,4.0,SNNECO,Eco-Bois,,,Prestataire,Lely,Bon,,,,,,5.771038,45.254573
1186,"45.11001,5.82155",Grand-Sud,Vaulnaveys le Bas,,Montée de Montchaffrey / 301 Route de la Gorge,,VER,verre,CA,aérien,3.0,SNNECO,Eco-DI,,,Prestataire,Lely,Sale,SNNECO_Eco-DI_3_A_k,,,,,5.821549,45.110011
1183,"45.11286,5.80472",Grand-Sud,Vaulnaveys le Bas,,Ozanam / 200 Avenue des Vaulnaveys (colonne à l'intérieur de la propriété - accès cuisines),,VER,verre,CA,aérien,4.0,SNNECO,Eco-Bois,,,Prestataire,Lely,Sale,SNNECO_Eco-Bois_4_A_k,,,,,5.804723,45.112857
1163,"45.07035,5.75774",Grand-Sud,Notre Dame de Mésage,,Mairie / Allée de la Chapelle / Place de la Mairie (conteneurs en retrait derrière mairie),,VER,verre,CE,enterré,0.0,Villiger,?,,,Prestataire,Lely,Sale,Villiger__0_E_k,,,,,5.757737,45.070346
1184,"45.11278,5.80781",Grand-Sud,Vaulnaveys le Bas,,Passe-Rivière / Station de pompage / 433 Route des Pénitents Blancs,,VER,verre,CA,aérien,3.0,SNNECO,Eco-DI,,,Prestataire,Lely,Sale,SNNECO_Eco-DI_3_A_k,,,,,5.807809,45.112784
1185,"45.11277,5.8078",Grand-Sud,Vaulnaveys le Bas,,Passe-Rivière / Station de pompage / 433 Route des Pénitents Blancs,,VER,verre,CA,aérien,4.0,SNNECO,Eco-Bois,,,Prestataire,Lely,Sale,SNNECO_Eco-Bois_4_A_k,,,,,5.807803,45.112769
1192,"45.12179,5.82875",Grand-Sud,Vaulnaveys le Haut,,Belmont / 1650-1750 Route de Prémol / Chemin de la Chapelle,,VER,verre,CA,aérien,3.0,SNNECO,Eco-DI,Type bois,,Prestataire,Lely,Sale,SNNECO_Eco-DI_3_A_k,,,,,5.828747,45.121792
1197,"45.1197,5.80942",Grand-Sud,Vaulnaveys le Haut,,Champ de Foire / Salle polyvalente / Bibliothèque / Impasse du Champ de Foire,,VER,verre,CA,aérien,3.0,SNNECO,Eco-DI,Type bois,,Prestataire,Lely,Sale,SNNECO_Eco-DI_3_A_k,,,,,5.809423,45.1197
1127,"45.1097,5.72632",Grand-Sud,Champagnier,,Espace 4 Vents (accès cuisines) / 3 Chemin du Gal,,VER,verre,CA,aérien,4.0,SNNECO,Eco-Bois,,,Prestataire,Lely,Bon,SNNECO_Eco-Bois_4_A_k,,,,,5.726321,45.109703
1148,"45.11269,5.76634",Grand-Sud,Jarrie,,Cimetière (Haute Jarrie) / 789 Route de l'Eglise,,VER,verre,CA,aérien,4.0,SNNECO,Eco-Bois,,,Prestataire,Lely,Sale,SNNECO_Eco-Bois_4_A_k,,,,,5.766341,45.11269
550,"45.02046,5.64951",Grand-Sud,Le Gua,,Les Saillants / Boulodrome / Tennis / Ecole élémentaire le Bruyant,,VER,verre,CA,aérien,4.0,SNNECO,Eco-Bois,,,Prestataire,Lely,Bon,SNNECO_Eco-Bois_4_A_c,,,,,5.649507,45.020457
1193,"45.12211,5.80425",Grand-Sud,Vaulnaveys le Haut,,Déchèterie / Mas des Bessins / Route D5E,,VER,verre,CA,aérien,4.0,SNNECO,Eco-Bois,,,Prestataire,Lely,Bon,SNNECO_Eco-Bois_4_A_k,,,,,5.804249,45.12211
1194,"45.12209,5.80425",Grand-Sud,Vaulnaveys le Haut,,Déchèterie / Mas des Bessins / Route D5E,,VER,verre,CA,aérien,4.0,SNNECO,Eco-Bois,,,Prestataire,Lely,Bon,SNNECO_Eco-Bois_4_A_k,,,,,5.804246,45.122086
1156,"45.09123,5.74168",Grand-Sud,Jarrie,,Parking stade (Basse Jarrie) / 701 Rue du Moulin,,VER,verre,CA,aérien,4.0,SNNECO,Eco-Bois,,,Prestataire,Lely,Sale,SNNECO_Eco-Bois_4_A_k,,,,,5.741679,45.091228
1155,"45.09052,5.74418",Grand-Sud,Jarrie,,Stade Pierre Pillet (Basse Jarrie) / 157 Rue Henri Barbusse,,VER,verre,CA,aérien,4.0,SNNECO,Eco-Bois,,,Prestataire,Lely,Sale,SNNECO_Eco-Bois_4_A_k,,,,,5.744184,45.090524
1196,"45.12208,5.80428",Grand-Sud,Vaulnaveys le Haut,,Déchèterie / Mas des Bessins / Route D5E,,VER,verre,CA,aérien,4.0,Quadria,Cuba Bois,"Citec_Cyclea_2,5_c_A_till_????-??-??",,Prestataire,Lely,Bon,Citec_Cyclea_2.5_A_c,,,,,5.804283,45.122084
1198,"45.11467,5.80736",Grand-Sud,Vaulnaveys le Haut,,Stade Daniel Petiot / 47 Avenue d'Uriage / Parking / angle avec Chemin du Stade,,VER,verre,CA,aérien,4.0,SNNECO,Eco-Bois,Type bois,,Prestataire,Lely,Sale,SNNECO_Eco-Bois_4_A_k,,,,,5.807358,45.114668
1191,"45.13292,5.82483",Grand-Sud,Vaulnaveys le Haut,,Tuilerie 2 - Champey / 355 Route de Prémol (parking) / Chemin de Champey,,VER,verre,CA,aérien,3.0,SNNECO,Eco-DI,Type bois,,Prestataire,Lely,Sale,SNNECO_Eco-DI_3_A_k,,,,,5.824835,45.132923
940,"45.05368,5.66657",Grand-Sud,Vif,,23 Rue Gustave Guerre / Parking vers passerelle / Face école Malraux,,VER,verre,CA,aérien,3.0,UTPM,Ecobox,,,Prestataire,Lely,Bon,UTPM_Ecobox_3_A_c,,,,,5.666571,45.053675
949,"45.05439,5.68308",Grand-Sud,Vif,,27 Rue du Truchet / Centre technique municipal (logette près du transformateur),,VER,verre,CA,aérien,4.0,SNNECO,Eco-Bois,,,Prestataire,Lely,Bon,SNNECO_Eco-Bois_4_A_c,,,,,5.683084,45.054387
937,"45.04714,5.66734",Grand-Sud,Vif,,5 Avenue Général De Gaulle / Contre-allée vers rond-point (ancien tracé de l'avenue),,VER,verre,CA,aérien,4.0,Citec,Cyclea,,,Prestataire,Lely,Bon,Citec_Cyclea_4_A_c,,,,,5.667342,45.047139
567,"45.12403,5.69459",Grand-Sud,Le Pont de Claix,,Place des Alpes (Place du Marché),,VER,verre,CA,aérien,4.0,Quadria,Linéance,,,Prestataire,Lely,Bon,Citec_Cyclea_4_A_c,,,,,5.694594,45.124035
935,"45.05139,5.6723",Grand-Sud,Vif,,Collège le Masségu (cuisines) / Rue du 19 mars 1962 (en face de la salle polyvalente),,VER,verre,CA,aérien,4.0,Citec,Cyclea,,,Prestataire,Lely,Bon,Citec_Cyclea_4_A_c,,,,,5.672296,45.051388
952,"45.03103,5.66428",Grand-Sud,Vif,,Le Poyet / Route de Sisteron (RN 75) / Allée du Poyet,,VER,verre,CA,aérien,4.0,SNNECO,Eco-DI/Eco-Bois,,,Prestataire,Lely,Usé,SNNECO_EcoBois/EcoDI_4_A_c,,,,,5.664278,45.031034
953,"45.05605,5.66733",Grand-Sud,Vif,,Route des Celliers / Place du Breuil (intersection Boulevard Faidherbe - pont sur la Gresse),,VER,verre,CA,aérien,4.0,Citec,Cyclea,,,Prestataire,Lely,Bon,Citec_Cyclea_4_A_c,,,,,5.667333,45.056049
951,"45.05575,5.67354",Grand-Sud,Vif,,Rue du Repos / Face au cimetière / Proximité Allée Van Gogh (copropriété la Croix des Gracieux),,VER,verre,CA,aérien,3.0,Citec,Cyclea,,,Prestataire,Lely,Sale,Citec_Cyclea_3_A_c,,,,,5.673542,45.055748
934,"45.05671,5.66828",Grand-Sud,Vif,,Salle des fêtes (parking derrière bâtiment) / Accès par rue du Polygone,,VER,verre,CA,aérien,4.0,Citec,Cyclea,,,Prestataire,Lely,Sale,Citec_Cyclea_4_A_c,,,,,5.668278,45.056708
1221,"45.05293,5.77796",Grand-Sud,Vizille,,Le Grand Trou (Péage de Vizille) / 1108 Rue du Maquis de l'Oisans (RD 1091),,VER,verre,CA,aérien,4.0,SNNECO,Eco-Bois,,,Prestataire,Lely,Sale,SNNECO_Eco-Bois_4_A_k,,,,,5.777964,45.052926
1208,"45.08193,5.7882",Grand-Sud,Vizille,,Les Corniers / Centre de loisirs / Chemin des Corniers,,VER,verre,CA,aérien,3.0,SNNECO,Eco-DI,,,Prestataire,Lely,Sale,SNNECO_EcoDI_3_A_k,,,,,5.788199,45.081928
1201,"45.08271,5.77123",Grand-Sud,Vizille,,Les Roseaux / Avenue de Vénaria / Avenue des Roseaux,,VER,verre,CA,aérien,4.0,SNNECO,Eco-Bois,,,Prestataire,Lely,Bon,SNNECO_Eco-Bois_4_A_k,,,,,5.77123,45.082707
1327,"45.14515,5.70574",Sud,Echirolles,,4 Rue Léon Fournier Sud,,VER,verre,CA,aérien,3.0,Citec,Cyclea,"Citec Cycléa 3m3 Crochet, puce",,Prestataire,Lely,,,,2019-06-21,Nouveau site de collecte,,5.7057359049889,45.145146647802
941,"45.05449,5.67907",Grand-Sud,Vif,,Rue du 8 mai 1945 / Rue de l'Espère / supermarché Casino,,VER,verre,CA,aérien,4.0,Citec,Cyclea,,,Prestataire,Lely,Bon,Citec_Cyclea_4_A_c,,,,,5.679068,45.054487
1212,"45.07676,5.77161",Grand-Sud,Vizille,,Parking République / 124 Rue de la République,,VER,verre,CA,aérien,3.0,SNNECO,Eco-DI,,,Prestataire,Lely,Bon,SNNECO_Eco-DI_3_E_k,,,,,5.771611,45.076758
1213,"45.07474,5.77227",Grand-Sud,Vizille,,Place du Château / Rue Emile Cros,,VER,verre,CE,enterré,0.0,Villiger,?,,,Prestataire,Lely,Bon,Villiger__0_E_k,,,,,5.772267,45.074736
1209,"45.07924,5.77388",Grand-Sud,Vizille,,Place du Marché / Place Henri Barbusse,,VER,verre,CE,enterré,0.0,Villiger,?,,,Prestataire,Lely,Usé,Villiger__0_E_k,,,,,5.773882,45.079235
1238,"45.07631,5.77563",Grand-Sud,Vizille,,Salle des fêtes La Locomotive (parking derrière la salle) / 261 Route d'Uriage,,VER,verre,CA,aérien,3.0,SNNECO,Eco-Bois,,,Prestataire,Lely,Bon,SNNECO_EcoBois_3_A_k,,???,,,5.775628,45.076314
1199,"45.08443,5.76269",Grand-Sud,Vizille,,ZA Cornage / Intermarché / 270 Rue Ambroise Croizat / Chemin des Peupliers,,VER,verre,CA,aérien,4.0,SNNECO,Eco-Bois,,,Prestataire,Lely,Bon,SNNECO_Eco-Bois_4_A_k,,,,,5.762689,45.084432
17,"45.22061,5.76396",Nord-Est,Corenc,,123 Route de Chartreuse (100 m avant accès Maison de Retraite la Providence),,VER,verre,CA,aérien,4.0,Citec,Cyclea Max,,,Prestataire,Lely,Usé,Citec_Cyclea Max_4_A_c,,,,,5.763956,45.220615
15,"45.2195,5.75433",Nord-Est,Corenc,,3 Chemin de Cabessière (local poubelle),,VER,verre,CA,aérien,2.5,Citec,Cyclea,,,Prestataire,Lely,Bon,Citec_Cyclea_2.5_A_c,,,,,5.754326,45.219499
16,"45.22273,5.75281",Nord-Est,Corenc,,42 Chemin de Pelletière,,VER,verre,CA,aérien,2.5,Citec,Cyclea,,,Prestataire,Lely,Bon,Citec_Cyclea_2.5_A_c,,,,,5.752809,45.222725
24,"45.20826,5.75743",Nord-Est,Corenc,,66 Avenue du Grésivaudan / Parking Collège Jules Flandrin,,VER,verre,CA,aérien,3.0,Citec,Cyclea,,,Prestataire,Lely,Bon,Citec_Cyclea_3_A_c,,,,,5.757425,45.208258
19,"45.20885,5.74895",Nord-Est,Corenc,,9 Chemin de la Croix de Montfleury / Tennis Club,,VER,verre,CA,aérien,3.0,Citec,Cyclea,,,Prestataire,Lely,Bon,Citec_Cyclea_3_A_c,,,,,5.748954,45.20885
20,"45.21142,5.75226",Nord-Est,Corenc,,Avenue de Beauregard / Allée des Séquoias,,VER,verre,CA,aérien,2.5,Citec,Cyclea,,,Prestataire,Lely,Bon,Citec_Cyclea_2.5_A_c,,,,,5.752256,45.21142
25,"45.21658,5.7537",Nord-Est,Corenc,,Chemin de Malanot / Route de Chartreuse (Monument aux morts),,VER,verre,CA,aérien,3.0,Citec,Cyclea,,,Prestataire,Lely,Bon,Citec_Cyclea_3_A_c,,,,,5.753704,45.216575
18,"45.21928,5.76155",Nord-Est,Corenc,,Chemin des Pierres / Route de Chartreuse,,VER,verre,CA,aérien,4.0,Citec,Cyclea,,,Prestataire,Lely,Bon,Citec_Cyclea_4_A_c,,,,,5.76155,45.219284
39,"45.20679,5.82769",Nord-Est,Domène,,1 Rue Aristide Bergès / Parking Intermarché,,VER,verre,CA,aérien,4.0,Citec,Cyclea,,,Prestataire,Lely,Bon,Citec_Cyclea_4_A_c,,,,,5.827687,45.206786
1285,"45.20129,5.82209",Nord-Est,Domène,,2 Rue des Iles / Services techniques,,VER,verre,CA,aérien,0.0,?,?,,,Prestataire,Lely,Usé,???_???_0_A_?,,2018-03-30,Ancienne colonne stockée dans domaine privé des serv tech réintégrée dans listing Métro (mais toujours inaccessible au public),,5.822085,45.20129
37,"45.20347,5.82817",Nord-Est,Domène,,25-29 Rue Casimir Julhiet / Allée de la Fraternité / Entrée quartier Chenevières,,VER,verre,CA,aérien,3.0,Citec,Cyclea,,,Prestataire,Lely,Bon,Citec_Cyclea_3_A_c,,,,,5.828175,45.203468
33,"45.2005,5.83457",Nord-Est,Domène,,30B Rue Emile Blanc / Complexe sportif Pierre de Courbertin / Piscine,,VER,verre,CA,aérien,3.0,Citec,Cyclea,,,Prestataire,Lely,Bon,Citec_Cyclea_3_A_c,,,,,5.83457,45.200504
36,"45.19783,5.81812",Nord-Est,Domène,,39 Rue Aristide Bergès / Zone industrielle,,VER,verre,CA,aérien,2.5,Citec,Cyclea,,,Prestataire,Lely,Bon,Citec_Cyclea_2.5_A_c,,,,,5.818122,45.197829
35,"45.19618,5.82254",Nord-Est,Domène,,41 Rue des Sports (limite Murianette),,VER,verre,CA,aérien,3.0,Citec,Cyclea,,,Prestataire,Lely,Bon,Citec_Cyclea_3_A_c,,,,,5.822537,45.196181
32,"45.20287,5.83545",Nord-Est,Domène,,9 Rue des Lilas / Chemin Cité du Moutiers / Résidence personnes agées ''Le Parc'',,VER,verre,CA,aérien,2.5,Citec,Cyclea,,,Prestataire,Lely,Usé,Citec_Cyclea_2.5_A_c,,,,,5.835451,45.202866
1288,"45.19517,5.83011",Nord-Est,Domène,,Chemin des Carrières / Parking Résidence le Beaulieu (à côté logette - après entrée E15),,VER,verre,CA,aérien,3.0,Quadria,Linéance,,,Prestataire,Lely,Bon,Quadria_Linéance_3_A_c,,2018-05-29,Nouveau site de collecte,,5.830113,45.195167
1291,"45.20474,5.84441",Nord-Est,Domène,,Route de Savoie / Route de Chartreuse,,VER,verre,CA,aérien,3.0,Quadria,Linéance,,,Prestataire,Lely,Bon,Quadria_Linéance_3_A_c,,2018-05-29,Nouveau site de collecte,,5.844414,45.204738
38,"45.20566,5.82594",Nord-Est,Domène,,Rue Aristide Bergès / Ensemble sportif / Skate-park / Tennis / Boulodrome,,VER,verre,CA,aérien,4.0,Citec,Cyclea,,,Prestataire,Lely,Bon,Citec_Cyclea_4_A_c,,,,,5.825935,45.20566
34,"45.19711,5.82835",Nord-Est,Domène,,Rue des Alpes / Collège et gymnase de la Moulinière,,VER,verre,CA,aérien,3.0,Citec,Cyclea,,,Prestataire,Lely,Bon,Citec_Cyclea_3_A_c,,,,,5.828351,45.197108
30,"45.20233,5.83967",Nord-Est,Domène,,Rue Henri David / Derrière salle des fêtes,,VER,verre,CA,aérien,3.0,Citec,Cyclea,,,Prestataire,Lely,Bon,Citec_Cyclea_3_A_c,,,,,5.839667,45.202329
224,"45.18337,5.79995",Nord-Est,Gières,,13-15 Rue de la Fontaine,,VER,verre,CA,aérien,3.0,Plastic Omnium,Citybulle,,,Prestataire,Lely,Usé,Plastic Omnium_Citybulle_3_A_c,,,,,5.799947,45.18337
1268,"45.18279,5.78824",Nord-Est,Gières,,1d Rue de la Gare / Rue des Routoirs,,VER,verre,CA,aérien,3.0,Quadria,Linéance,,,Prestataire,Lely,Bon,Quadria_Linéance_3_A_c,,2017-12-11,,,5.788245,45.182789
219,"45.185,5.79103",Nord-Est,Gières,,2 Rue Pierre Giraud,,VER,verre,CA,aérien,3.0,Plastic Omnium,Citybulle,,,Prestataire,Lely,Usé,Plastic Omnium_Citybulle_3_A_c,,,,,5.791032,45.185001
925,"45.10728,5.68585",Grand-Sud,Varces Allières et Risset,,Zone rue du Pré de l'Orme,,VER,verre,CA,aérien,2.5,Citec,Cyclea,,,Prestataire,Lely,Sale,Citec_Cyclea_2.5_A_c,,,,,5.685851,45.107278
222,"45.17965,5.79042",Nord-Est,Gières,,21 Rue Victor Hugo / vers Eglise,,VER,verre,CA,aérien,3.0,Citec,Cyclea,,,Prestataire,Lely,Bon,Citec_Cyclea_3_A_c,,,,,5.790421,45.179648
1272,"45.18519,5.80164",Nord-Est,Gières,,28-32 Rue de la Libération,,VER,verre,CA,aérien,3.0,Quadria,Linéance,,,Prestataire,Lely,Bon,Quadria_Linéance_3_A_c,,2017-12-14,,,5.801635,45.185188
234,"45.18538,5.77891",Nord-Est,Gières,,Rue de la Condamine / Rue de Mayencin,,VER,verre,CA,aérien,4.0,UTPM,Ecobox,,,Prestataire,Lely,Bon,UTPM_Ecobox_4_A_c,,,,2013-07-03,5.778911,45.185378
220,"45.18099,5.79359",Nord-Est,Gières,,Rue des Arènes / Salle du Laussy,,VER,verre,CA,aérien,2.5,Citec,Cyclea,,,Prestataire,Lely,Bon,Citec_Cyclea_2.5_A_c,,,,,5.793594,45.180995
226,"45.1827,5.79413",Nord-Est,Gières,,Rue des Cottages / derrière bibliothèque,,VER,verre,CA,aérien,4.0,Inconnue,Inconnu,"modèle """"ferraille""""",,Prestataire,Lely,Usé,Inconnue_Inconnu_4_A_c,,,,,5.794134,45.182702
216,"45.18837,5.7844",Nord-Est,Gières,,Rue des Glairons / Mail des Sports / face entrée dépôt tram Semitag,,VER,verre,CA,aérien,3.0,Plastic Omnium,Citybulle,,,Prestataire,Lely,Bon,Plastic Omnium_Citybulle_3_A_c,,,,,5.7844,45.18837
217,"45.18787,5.78711",Nord-Est,Gières,,Rue des Sports (impasse / aire de retournement vers tennis),,VER,verre,CA,aérien,3.0,Plastic Omnium,Citybulle,,,Prestataire,Lely,Bon,Plastic Omnium_Citybulle_3_A_c,,,,,5.787108,45.187872
223,"45.18114,5.79138",Nord-Est,Gières,,Rue Victor Hugo / en face école de musique / Parc Michal / vers la Cure,,VER,verre,CA,aérien,3.0,Plastic Omnium,Citybulle,,,Prestataire,Lely,Bon,Plastic Omnium_Citybulle_3_A_c,,,,,5.791377,45.181145
28,"45.20274,5.83811",Nord-Est,Domène,,Rue Marius Charles / Place Compagnie Stéphane,,VER,verre,CA,aérien,4.0,Quadria,Linéance,,,Prestataire,Lely,Bon,Citec_Cyclea_3_A_c,,,,2018-05-29,5.838105,45.202739
27,"45.20268,5.83809",Nord-Est,Domène,,Rue Marius Charles / Place Compagnie Stéphane,,VER,verre,CA,aérien,4.0,Quadria,Linéance,,,Prestataire,Lely,Bon,Citec_Cyclea_4_A_c,,,,2018-05-29,5.838092,45.202675
936,"45.05139,5.6719",Grand-Sud,Vif,,Salle polyvalente Louis Maisonnat / Rue du 19 mars 1962 (en face du collège),,VER,verre,CA,aérien,3.0,UTPM,Ecobox,,,Prestataire,Lely,Bon,UTPM_Ecobox_3_A_c,,,,,5.671901,45.051389
537,"45.20252,5.75309",Nord-Est,La Tronche,,1 Rue Jean de la Fontaine / Centre commercial Doyen Gosse (face à la Poste) / Devant église,,VER,verre,CA,aérien,4.0,Citec,Cyclea Max,,,Prestataire,Lely,Bon,Citec_Cyclea Max_4_A_c,,,,,5.753089,45.202524
528,"45.20736,5.74644",Nord-Est,La Tronche,,10-12 Grande Rue (face au 23) / Parking des Cèdres,,VER,verre,CE,enterré,4.0,Citec,,,,Prestataire,Lely,Bon,Citec__4_E_k,,,,,5.746437,45.207357
545,"45.19736,5.74658",Nord-Est,La Tronche,,11 Boulevard de la Chantourne / rue accés restaurant universitaire,,VER,verre,CA,aérien,2.5,Citec,Cyclea,,,Prestataire,Lely,Bon,Citec_Cyclea_2.5_A_c,,,,,5.746585,45.197363
540,"45.19994,5.75265",Nord-Est,La Tronche,,11 Rue de l'Oisans,,VER,verre,CA,aérien,4.0,Citec,Cyclea Max,,,Prestataire,Lely,Bon,Citec_Cyclea Max_4_A_c,,,,,5.752651,45.199939
538,"45.2033,5.75126",Nord-Est,La Tronche,,13-17 Rue Doyen Gosse (vers intersection avec Chemin Georges Ferrieux et Rue Nicolas Boileau,,VER,verre,CA,aérien,2.5,Citec,Cyclea,,,Prestataire,Lely,Bon,Citec_Cyclea_2.5_A_c,,,,,5.751262,45.2033
535,"45.20179,5.75649",Nord-Est,La Tronche,,15 Rue Blaise Pascal / Quartier Doyen Gosse,,VER,verre,CA,aérien,3.0,Citec,Cyclea,,,Prestataire,Lely,Bon,Citec_Cyclea_3_A_c,,,,,5.756487,45.201789
520,"45.21007,5.73901",Nord-Est,La Tronche,,18-20 Chemin de la Vierge Noire / Chemin Noyarey,,VER,verre,CA,aérien,2.5,Citec,Cyclea,,,Prestataire,Lely,Bon,Citec_Cyclea_2.5_A_c,,,,,5.739008,45.210074
530,"45.20491,5.74401",Nord-Est,La Tronche,,2 Rue Eymard Duvernay / Gymnase,,VER,verre,CA,aérien,4.0,Citec,Cyclea Max,,,Prestataire,Lely,Bon,Citec_Cyclea Max_4_A_c,,,,,5.744014,45.204909
518,"45.21792,5.75039",Nord-Est,La Tronche,,3 Chemin de Maubec / Hameau de Maubec,,VER,verre,CA,aérien,2.5,Citec,Cyclea,,,Prestataire,Lely,Bon,Citec_Cyclea_2.5_A_c,,,,,5.750392,45.217919
519,"45.21363,5.7442",Nord-Est,La Tronche,,40 Chemin de Maubec (à côté du transfo) / Chemin de Montvinoux,,VER,verre,CA,aérien,2.5,Citec,Cyclea,,,Prestataire,Lely,Bon,Citec_Cyclea_2.5_A_c,,,,,5.744199,45.213633
547,"45.21377,5.74756",Nord-Est,La Tronche,,5-8 Route de Chartreuse / Réservoir,,VER,verre,CA,aérien,2.5,Citec,Cyclea,,,Prestataire,Lely,Bon,Citec_Cyclea_2.5_A_c,,,,,5.747559,45.213772
1297,"45.20486,5.73825",Nord-Est,La Tronche,,95 Grande Rue,,VER,verre,CE,enterré,3.0,Plastic Omnium,Minimax 4,,,Prestataire,Lely,Bon,Plastic Omnium_Minimax 4_3_E_k,,2018-06-25,,,5.738252,45.204859
539,"45.19964,5.75021",Nord-Est,La Tronche,,Avenue de l'Obiou / Avenue du Grand Sablon,,VER,verre,CA,aérien,3.0,Citec,Cyclea,,,Prestataire,Lely,Bon,Citec_Cyclea_3_A_c,,,,,5.750208,45.199641
543,"45.19716,5.75199",Nord-Est,La Tronche,,Boulevard de la Chantourne (immeuble le Manhattan),,VER,verre,CA,aérien,3.0,Citec,Cyclea,,,Prestataire,Lely,Bon,Citec_Cyclea_3_A_c,,,,,5.751987,45.197164
517,"45.21155,5.74326",Nord-Est,La Tronche,,Chemin du Cellier (côté bacs OM) / Lotissement Saint Germain,,VER,verre,CA,aérien,3.0,Citec,Cyclea,,,Prestataire,Lely,Bon,Citec_Cyclea_3_A_c,,,,,5.743259,45.211548
516,"45.21212,5.7458",Nord-Est,La Tronche,,Chemin du Mas Saint Germain / Chemin de Mantonne,,VER,verre,CA,aérien,2.5,Citec,Cyclea,,,Prestataire,Lely,Bon,Citec_Cyclea_2.5_A_c,,,,,5.745798,45.212123
527,"45.20961,5.74692",Nord-Est,La Tronche,,Chemin du Petit Violet / Allée Verte,,VER,verre,CA,aérien,2.5,Citec,Cyclea,,,Prestataire,Lely,Bon,Citec_Cyclea_2.5_A_c,,,,2017-06-20 (bac brûlé),5.746917,45.209607
544,"45.19701,5.74421",Nord-Est,La Tronche,,Chemin Fortuné Ferrini (entrée parking restaurant universitaire),,VER,verre,CA,aérien,2.5,Citec,Cyclea,,,Prestataire,Lely,Usé,Citec_Cyclea_2.5_A_c,,,,,5.744207,45.197012
1311,"45.19828,5.75631",Nord-Est,La Tronche,,CTE Nord-Est / 4 chemin de la Tuilerie (50 chemin de la Caronnerie),,VER,verre,CA,aérien,2.5,Citec,Cyclea,,,Prestataire,Lely,Bon,,,2019-01-17,Nouveau site de collecte,,5.756306,45.198282
525,"45.20386,5.73697",Nord-Est,La Tronche,,Grande Rue (face n°84-88),,VER,verre,CA,aérien,3.0,Citec,Cyclea,,,Prestataire,Lely,Bon,Citec_Cyclea_3_A_c,,,,,5.736974,45.203865
541,"45.20102,5.75147",Nord-Est,La Tronche,,Rue du Vercors (côté parc face n°7),,VER,verre,CA,aérien,2.5,Citec,Cyclea,,,Prestataire,Lely,Bon,Citec_Cyclea_2.5_A_c,,,,,5.751465,45.201024
1226,"45.24936,5.7657",Nord-Est,Le Sappey en Chartreuse,,Bas de Pillonnières / Route du Col de Porte (Route D512),,VER,verre,CA,aérien,4.0,SNNECO,Eco-Bois,,,Prestataire,Lely,Usé,SNNECO_Eco-Bois_4_A_k,,,,,5.765702,45.249356
1107,"45.2635,5.77725",Nord-Est,Le Sappey en Chartreuse,,Hôtel-restaurant Les Skieurs,,VER,verre,CA,aérien,4.0,SNNECO,Eco-Bois,Type bois,,Prestataire,Lely,Bon,SNNECO_EcoBois_4_A_c,,,,,5.777253,45.263497
1104,"45.25852,5.77885",Nord-Est,Le Sappey en Chartreuse,,La Jacobine / Foyer ski / Route de la Jacobine (parking),,VER,verre,CA,aérien,4.0,SNNECO,Eco-Bois,Type bois,,Prestataire,Lely,Bon,SNNECO_EcoBois_4_A_k,,,,,5.778849,45.258519
1303,"45.26002,5.77175",Nord-Est,Le Sappey en Chartreuse,,Les Beauches / Route de l'Achard / Chemin des Beauches,,VER,verre,CA,aérien,4.0,Quadria,Cuba Bois,,,Prestataire,Lely,Bon,Quadria_! Bois !_4_A_k,,2018-09-05,Nouveau site de collecte du Verre sur site de collecte OMR-Papier-Emballages existant,,5.771754,45.260015
1037,"45.20676,5.77735",Nord-Est,Meylan,,13 Allée des Eyminées,,VER,verre,CA,aérien,3.0,Citec,Cyclea,,,Prestataire,Lely,Bon,Citec_Cyclea_3_A_c,,,,,5.777354,45.206758
982,"45.21021,5.77229",Nord-Est,Meylan,,13 Avenue de Verdun / Résidence les 4 Seigneurs,,VER,verre,CA,aérien,3.0,Citec,Cyclea,,,Prestataire,Lely,Usé,Citec_Cyclea_3_A_c,,2009-11-25,,2014-02-20,5.772292,45.210208
1017,"45.22174,5.78757",Nord-Est,Meylan,,13-19 Chemin de Rochasson / vers impasse St Eynard,,VER,verre,CA,aérien,2.5,Citec,Cyclea,,,Prestataire,Lely,Bon,Citec_Cyclea_2.5_A_c,,2009 août 12,,,5.787573,45.221742
1039,"45.20255,5.76039",Nord-Est,Meylan,,18-34 Avenue de Verdun (entre Hôtel Mercure et avenue de la Plaine Fleurie),,VER,verre,CA,aérien,3.0,Citec,Cyclea,,,Prestataire,Lely,Bon,Citec_Cyclea_3_A_c,,2 avril 2010,,,5.760393,45.20255
1019,"45.23071,5.78764",Nord-Est,Meylan,,2 Allée du Pré Catlan (dans logette),,VER,verre,CA,aérien,2.5,Citec,Cyclea,,,Prestataire,Lely,Bon,Citec_Cyclea_2.5_A_c,,2009-11-25,,,5.787643,45.23071
964,"45.20205,5.76219",Nord-Est,Meylan,,2 Boulevard des Alpes (parking centre commercial - face station essence Carrefour),,VER,verre,CA,aérien,3.0,Citec,Cyclea,,,Prestataire,Lely,Bon,Citec_Cyclea_3_A_c,,2008,,,5.762193,45.202051
978,"45.20855,5.77464",Nord-Est,Meylan,,21 Avenue du Vercors (face à la piscine),,VER,verre,CA,aérien,3.0,Citec,Cyclea,,,Prestataire,Lely,Usé,Citec_Cyclea_3_A_c,,2009 nov 26,,,5.774637,45.208555
1103,"45.25461,5.77097",Nord-Est,Le Sappey en Chartreuse,,Le Gouillat / Route du Col de Porte (Route D512),,VER,verre,CA,aérien,4.0,SNNECO,Eco-Bois,Type bois,,Prestataire,Lely,Bon,SNNECO_EcoBois_4_A_k,,,,,5.770972,45.254607
977,"45.20775,5.77409",Nord-Est,Meylan,,23 Avenue du Vercors (Résidence L'Emendra) / face crêche,,VER,verre,CA,aérien,3.0,Citec,Cyclea,,,Prestataire,Lely,Bon,Citec_Cyclea_3_A_c,,2009-11-25,,,5.774089,45.20775
973,"45.20798,5.76057",Nord-Est,Meylan,,23 Rue Champ Rochas (entrée parc de Champ Rochas - face entrée résid. Manoir),,VER,verre,CA,aérien,3.0,Citec,Cyclea,,,Prestataire,Lely,Bon,Citec_Cyclea_3_A_c,,,,,5.760565,45.207984
208,"45.25292,5.66653",Nord-Ouest,Fontanil Cornillon,,Rue du Rafour / Parc municipal / Gymnase Lionel Terray,,VER,verre,CE,enterré,4.0,Citec,,,,Prestataire,Lely,Bon,Citec__4_E_,,,,,5.666527,45.252921
984,"45.21246,5.77116",Nord-Est,Meylan,,27-29 Avenue de Chamrousse (arrêt de bus) / Chemin de Chaumetière,,VER,verre,CA,aérien,2.5,Citec,Cyclea,,,Prestataire,Lely,Bon,Citec_Cyclea_2.5_A_c,,2009 nov 26,,,5.771161,45.212459
1038,"45.20355,5.76505",Nord-Est,Meylan,,3 bis Allée des Centaurées (discothèque ''Le Phoénix''),,VER,verre,CA,aérien,3.0,Citec,Cyclea,,,Prestataire,Lely,Bon,Citec_Cyclea_3_A_c,,4 mars 2010,,,5.76505,45.203555
988,"45.20672,5.77969",Nord-Est,Meylan,,3-5 Allée des Eyminées,,VER,verre,CA,aérien,3.0,Citec,Cyclea,,,Prestataire,Lely,Bon,Citec_Cyclea_3_A_c,,2009-11-25,,,5.779694,45.206716
971,"45.20447,5.76177",Nord-Est,Meylan,,36-40 Rue du Pré d'Elle (sur parking côté parc des Aiguinards),,VER,verre,CA,aérien,3.0,Citec,Cyclea,,,Prestataire,Lely,Bon,Citec_Cyclea_3_A_c,,2008,,,5.761772,45.204467
976,"45.2056,5.77065",Nord-Est,Meylan,,37 Avenue du Vercors (sur parking contre allée),,VER,verre,CA,aérien,4.0,Citec,Cyclea,,,Prestataire,Lely,Usé,Citec_Cyclea_4_A_c,,,,,5.770655,45.205604
987,"45.2082,5.78027",Nord-Est,Meylan,,39 Chemin de la Taillat (logements gendarmerie),,VER,verre,CA,aérien,3.0,Citec,Cyclea,,,Prestataire,Lely,Bon,Citec_Cyclea_3_A_c,,2009-11-25,,,5.780268,45.208202
966,"45.20378,5.76013",Nord-Est,Meylan,,40-42 Avenue Plaine Fleurie / Rue de la Grange (devant laboratoire analyse),,VER,verre,CA,aérien,3.0,Citec,Cyclea,,,Prestataire,Lely,Sale,Citec_Cyclea_3_A_c,,2008,,,5.760132,45.20378
968,"45.20627,5.75704",Nord-Est,Meylan,,4-12 Avenue Plaine Fleurie / Allée de la Roseraie / Rue Champ Rochas,,VER,verre,CA,aérien,2.5,Citec,Cyclea,,,Prestataire,Lely,Usé,Citec_Cyclea_2.5_A_c,,2009 nov 16,,,5.757041,45.206267
1020,"45.22774,5.78834",Nord-Est,Meylan,,42 Chemin de l'Eglise (parking),,VER,verre,CA,aérien,2.5,Citec,Cyclea,,,Prestataire,Lely,Bon,Citec_Cyclea_2.5_A_c,,2009-11-25,,,5.788336,45.227741
983,"45.21202,5.76651",Nord-Est,Meylan,,43-45 Avenue de Chamrousse (à côté restaurant la Mandibule),,VER,verre,CA,aérien,3.0,Citec,Cyclea,,,Prestataire,Lely,Bon,Citec_Cyclea_3_A_c,,2009 nov 26,,,5.766515,45.212023
975,"45.20843,5.76739",Nord-Est,Meylan,,44 Chemin de la Revirée (gymnase),,VER,verre,CA,aérien,3.0,Citec,Cyclea,,,Prestataire,Lely,Usé,Citec_Cyclea_3_A_c,,2009-11-25,,,5.767393,45.208427
981,"45.20397,5.77471",Nord-Est,Meylan,,47 Bvd des Alpes (devant tennis couverts),,VER,verre,CA,aérien,2.5,Citec,Cyclea,,,Prestataire,Lely,Bon,Citec_Cyclea_2.5_A_c,,2009 déc 12,,,5.774712,45.203965
979,"45.20926,5.7784",Nord-Est,Meylan,,5 Avenue du Vercors (arrêt bus en face mairie / à côté centre commercial Grand Pré),,VER,verre,CA,aérien,3.0,Citec,Cyclea,,,Prestataire,Lely,Bon,Citec_Cyclea_3_A_c,,2009 nov 26,,,5.778395,45.20926
939,"45.02789,5.65123",Grand-Sud,Vif,,Le Genevrey / Avenue Général De Gaulle / Avenue Louis Vicat / Avant pont sur la Gresse,,VER,verre,CA,aérien,4.0,Citec,Cyclea,Citec Cycléa 4m3 crohet,,Prestataire,Lely,Sale,Citec_Cyclea Max_4.2_A_c,,,,2017-08-10,5.65123,45.027893
1002,"45.21835,5.79469",Nord-Est,Meylan,,5-7 Chemin de Maupertuis (salle LCR La Praly),,VER,verre,CA,aérien,3.0,Citec,Cyclea,,,Prestataire,Lely,Bon,Citec_Cyclea_3_A_c,,2008,,,5.794689,45.218348
1034,"45.21937,5.78842",Nord-Est,Meylan,,7 Allée de la Résidence Saint Mury,,VER,verre,CA,aérien,3.0,Citec,Cyclea,,,Prestataire,Lely,Bon,Citec_Cyclea_3_A_c,,2 mars 2010,,,5.788416,45.219368
1044,"45.20794,5.77739",Nord-Est,Meylan,,7 bis Chemin du Habert (bibliothèque Grand Pré),,VER,verre,CA,aérien,3.0,Citec,Cyclea,,,Prestataire,Lely,Usé,Citec_Cyclea_3_A_c,,28 oct 2010,,,5.777395,45.207936
986,"45.21089,5.77774",Nord-Est,Meylan,,8-14 Allée de la Piat,,VER,verre,CA,aérien,2.5,Citec,Cyclea,,,Prestataire,Lely,Bon,Citec_Cyclea_2.5_A_c,,2009-11-25,,,5.777743,45.21089
965,"45.20431,5.7647",Nord-Est,Meylan,,Allée des Centaurées / Impasse des Centaurées (entrée cimetière),,VER,verre,CA,aérien,3.0,Citec,Cyclea,,,Prestataire,Lely,Bon,Citec_Cyclea_3_A_c,,2009-11-25,,,5.764697,45.204314
1012,"45.21713,5.77667",Nord-Est,Meylan,,Avenue de Chartreuse / Avenue des Mûriers (face n°29),,VER,verre,CA,aérien,3.0,Citec,Cyclea,,,Prestataire,Lely,Usé,Citec_Cyclea_3_A_c,,2009 août 12,,,5.776673,45.217131
1009,"45.21938,5.78618",Nord-Est,Meylan,,Avenue de Chartreuse / Chemin de la Ville / Allée des Fleurs,,VER,verre,CA,aérien,2.5,Citec,Cyclea,,,Prestataire,Lely,Bon,Citec_Cyclea_2.5_A_c,,2009 août 12,,,5.786181,45.219376
1001,"45.21995,5.78876",Nord-Est,Meylan,,Avenue des Sept Laux / Chemin de l'Hermitage (sur petit parking),,VER,verre,CA,aérien,2.5,Citec,Cyclea,,,Prestataire,Lely,Bon,Citec_Cyclea_2.5_A_c,,2009,,,5.788759,45.219954
1023,"45.21324,5.77765",Nord-Est,Meylan,,Chemin de Chaumetière / Allée du Château,,VER,verre,CA,aérien,3.0,Citec,Cyclea,,,Prestataire,Lely,Bon,Citec_Cyclea_3_A_c,,2010,,,5.777652,45.213236
1014,"45.22548,5.78",Nord-Est,Meylan,,Chemin de Clos Buisson (dans logette),,VER,verre,CA,aérien,2.0,UTPM,Ecobox,,,Prestataire,Lely,Bon,UTPM_Ecobox_2_A_c,,2009 août 12,,2016-06-21,5.779998,45.225481
1010,"45.21814,5.77933",Nord-Est,Meylan,,Avenue de Chartreuse / Chemin de l'Eglise (derrière bibliothèque / maison de quartier),,VER,verre,CA,aérien,3.0,Citec,Cyclea,Citec cycléa 3m3 crochet,,Prestataire,Lely,Bon,Citec_Cyclea_2.5_A_c,,2009 août 12,,2019-03-07,5.779326,45.218143
1018,"45.224,5.79378",Nord-Est,Meylan,,Chemin de la Chicane / Allée de Pré Fleuri,,VER,verre,CA,aérien,2.5,Citec,Cyclea,,,Prestataire,Lely,Bon,Citec_Cyclea_2.5_A_c,,2009-11-25,,,5.793781,45.223999
1008,"45.21614,5.77963",Nord-Est,Meylan,,Chemin de l'Ancienne Mairie / Avenue des Mûriers (rond point),,VER,verre,CA,aérien,2.5,Citec,Cyclea,,,Prestataire,Lely,Usé,Citec_Cyclea_2.5_A_c,,2009 août 12,,,5.779629,45.216139
972,"45.20638,5.7639",Nord-Est,Meylan,,Rue des Aiguinards (parking de l'Hexagone),,VER,verre,CA,aérien,3.0,Citec,Cyclea,,,Prestataire,Lely,Usé,Citec_Cyclea_3_A_c,,2009-11-25,,,5.763903,45.206379
974,"45.20917,5.76368",Nord-Est,Meylan,,Rue des Lilas (entrée de la rue - côté place de la Louisiane),,VER,verre,CA,aérien,4.0,Citec,Cyclea,,,Prestataire,Lely,Bon,Citec_Cyclea_4_A_c,,2008,,,5.763679,45.209172
1011,"45.21812,5.77613",Nord-Est,Meylan,,Rue du Pal de Fer (face n°19) / Avenue du Bourcet,,VER,verre,CA,aérien,2.5,Citec,Cyclea,,,Prestataire,Lely,Bon,Citec_Cyclea_2.5_A_c,,2009-11-25,,,5.776131,45.218124
969,"45.20662,5.75954",Nord-Est,Meylan,,Rue du Pré d'Elle / Rue Le Poulet (dans logette),,VER,verre,CA,aérien,2.5,Citec,Cyclea,,,Prestataire,Lely,Bon,Citec_Cyclea_2.5_A_c,,2008,,,5.759536,45.206624
705,"45.18769,5.81122",Nord-Est,Murianette,,Chemin de la Perrière (limite Gières),,VER,verre,CA,aérien,2.5,Citec,Cyclea,,,Prestataire,Lely,Bon,Citec_Cyclea_2.5_A_c,,,,,5.811224,45.187689
1307,"45.18533,5.82333",Nord-Est,Murianette,,Route de la Pérérée (D291) / Chemin du Jappin,,VER,verre,CA,aérien,4.2,Citec,Cyclea Max,,,Prestataire,Lely,Bon,Citec_Cyclea Max_4.2_A_c,,2018-11-27,Nouveau site de collecte,,5.823326,45.185328
1282,"45.16559,5.75075",Nord-Est,Saint Martin d'Hères,,11 Rue Chopin / Ecole maternelle Paul Bert,,VER,verre,CA,aérien,3.0,Quadria,Linéance,,,Prestataire,Lely,Bon,Quadria_Linéance_3_A_c,,2018-03-16,,,5.750755,45.165585
792,"45.17909,5.75333",Nord-Est,Saint Martin d'Hères,,13 Rue Paul Langevin / Maison de retraite Bon Basteur / Collège Edouard Vaillant,,VER,verre,CA,aérien,2.5,Citec,Cyclea,,,Prestataire,Lely,Bon,Citec_Cyclea_2.5_A_c,,,,,5.753331,45.179085
1302,"45.18767,5.76187",Nord-Est,Saint Martin d'Hères,,16 Rue Barnave / Déchèterie,,VER,verre,CA,aérien,4.0,Quadria,Linéance,,,Prestataire,Lely,Bon,Quadria_Linéance_4_A_c,,2018-09-21,Nouveau site de collecte,,5.76187,45.18767
1082,"45.183,5.75078",Nord-Est,Saint Martin d'Hères,,16 Rue Henri Revoy / Gymnase et stade Auguste Delaune,,VER,verre,CA,aérien,3.0,UTPM,Ecobox,,,Prestataire,Lely,Sale,UTPM_Ecobox_3_A_c,,2013 (mai),,,5.750777,45.183004
817,"45.1887,5.75456",Nord-Est,Saint Martin d'Hères,,16 Rue Pierre Brossolette / Entrée square MJC Gabriel Péri / Face au terrain de pétanque,,VER,verre,CA,aérien,3.0,Quadria,Linéance,Quadria 3m3 Crochet V1992A + Cliiink,,Prestataire,Lely,Bon,Citec_Cyclea_2.5_A_c,,,,2019-01-25,5.754561,45.188696
816,"45.18674,5.76075",Nord-Est,Saint Martin d'Hères,,11-13 Rue des Glairons / Clinique Belledonne,,VER,verre,CA,aérien,3.0,Citec,Cyclea,Citec 3m3 crochet,,Prestataire,Lely,Bon,Citec_Cyclea_4_A_c,,,,,5.760745,45.18674
1218,"45.05604,5.77249",Grand-Sud,Vizille,,Déchèterie (Péage de Vizille) / 526 Rue du Maquis de l'Oisans (RD 1091),,VER,verre,CA,aérien,0.0,?,?,bois Kinshofer,,Prestataire,Lely,Usé,Citec_Cyclea_2.5_A_c,,,,2018-07-11,5.772486,45.056036
801,"45.18231,5.76035",Nord-Est,Saint Martin d'Hères,,161-163 Avenue Ambroise Croizat / MJC Fernand Texier,,VER,verre,CE,enterré,0.0,Citec,,,,Prestataire,Lely,Bon,Citec__0_E_k,,,,2013-11-15,5.760351,45.182309
827,"45.18411,5.77437",Nord-Est,Saint Martin d'Hères,,31 Rue du Champ Roman / Sono Music / Côté Castorama,,VER,verre,CA,aérien,2.5,Inconnue,Inconnu,Colonne type ferraille,,Prestataire,Lely,Usé,Inconnue_Inconnu_2.5_A_c,,,,,5.774373,45.184109
780,"45.16477,5.75383",Nord-Est,Saint Martin d'Hères,,3-5 Rue Emile Zola,,VER,verre,CA,aérien,4.0,Citec,Cyclea Max,,,Prestataire,Lely,Bon,Citec_Cyclea Max_4_A_c,,,,,5.753832,45.16477
1280,"45.17636,5.76301",Nord-Est,Saint Martin d'Hères,,5 Rue Albert Samain (local OPAC 38) / Place Rosalind Franklin,,VER,verre,CA,aérien,3.0,Quadria,Linéance,,,Prestataire,Lely,Bon,Quadria_Linéance_3_A_c,,2018-03-16,,,5.763012,45.176358
777,"45.16745,5.75419",Nord-Est,Saint Martin d'Hères,,57 Avenue Zella Melhis (arrêt de bus),,VER,verre,CA,aérien,4.0,Quadria,Linéance,,,Prestataire,Lely,Bon,Quadria_Linéance_4_A_c,,,,,5.754187,45.167447
6001,"45.22808,5.72486",Nord-Ouest,Saint Martin Le Vinoux,,Route de Narbonne / Route de Clémencières,,VER,verre,CSE,semi-enterré,4.0,ESE,?,,,Prestataire,Lely,,,,2019-12-13,Nouveau site de collecte,,5.7248616208578,45.228082877452
818,"45.18972,5.75552",Nord-Est,Saint Martin d'Hères,,9-11 Rue Pierre Brossolette / Rue Colonel Manhès,,VER,verre,CA,aérien,3.0,Citec,Cyclea,,,Prestataire,Lely,Bon,Citec_Cyclea_3_A_c,,,,2017-05-05 (PAV brulé),5.755523,45.189717
1281,"45.16689,5.7496",Nord-Est,Saint Martin d'Hères,,Avenue de la Mogne / Gymnase Henri Maurice,,VER,verre,CA,aérien,3.0,Quadria,Linéance,,,Prestataire,Lely,Bon,Quadria_Linéance_3_A_c,,2018-03-16,,,5.7496,45.16689
796,"45.17734,5.75623",Nord-Est,Saint Martin d'Hères,,Avenue Elise Grappe / Avenue Carmagnole Liberté (angle opposé Commissariat Police),,VER,verre,CA,aérien,4.0,Citec,Cyclea Max,,,Prestataire,Lely,Bon,Citec_Cyclea Max_4_A_c,,,,,5.756235,45.177336
6002,"45.22803,5.72485",Nord-Ouest,Saint Martin Le Vinoux,,Route de Narbonne / Route de Clémencières,,OMR,ordures ménagères résiduelles,CSE,semi-enterré,5.0,ESE,?,,,Prestataire,Lely,,,,2019-12-13,Nouveau site de collecte,,5.7248537908718,45.228032964151
6003,"45.22799,5.72485",Nord-Ouest,Saint Martin Le Vinoux,,Route de Narbonne / Route de Clémencières,,CS,collecte sélective,CSE,semi-enterré,5.0,ESE,?,,,Prestataire,Lely,,,,2019-12-13,Nouveau site de collecte,,5.7248490511901,45.227990684991
1343,"45.07319,5.72906",Grand-Sud,Champ sur Drac,,205-207 Rue Marcel Paul / Les Grands Vergers,,VER,verre,CE,enterré,4.0,Sulo,?,,,Prestataire,Lely,,,,2019-11-28,Nouveau site de collecte,,5.7290611444634,45.073189051814
783,"45.16515,5.74903",Nord-Est,Saint Martin d'Hères,,Avenue Marcel Cachin (face au n° 70) / abri bus (arrêt Paul Eluard),,VER,verre,CA,aérien,2.5,Citec,Cyclea,,,Prestataire,Lely,Bon,Citec_Cyclea_2.5_A_c,,,,,5.749026,45.165148
774,"45.17472,5.76201",Nord-Est,Saint Martin d'Hères,,35 Rue Henri Wallon / Rue Montaigne / Pompiers / Lycée Pablo Néruda,,VER,verre,CA,aérien,4.0,Quadria,Linéance,Quadria 4m3 Crochet V2011A + Cliiink,,Prestataire,Lely,Bon,Citec_Cyclea_2.5_A_c,,,,2019-01-25,5.762006,45.174723
821,"45.18861,5.7514",Nord-Est,Saint Martin d'Hères,,84 Rue des Taillées,,VER,verre,CA,aérien,4.0,Quadria,Linéance,Quadria 4m3 Crochet V2012A + Cliiink,,Prestataire,Lely,Bon,Citec_Cyclea_3_A_c,,,,2019-01-25,5.751395,45.188606
793,"45.18273,5.75458",Nord-Est,Saint Martin d'Hères,,Avenue Benoit Frachon / Rue Friedrich Engels (Eglise Notre Dame de la Salette),,VER,verre,CA,aérien,3.0,Citec,Cyclea,,,Prestataire,Lely,Bon,Citec_Cyclea_3_A_cc,,,,,5.754584,45.182732
1050,"45.17351,5.78126",Nord-Est,Saint Martin d'Hères,,Le Mûrier / Route des Maquis (face aux n° 125-127) / Parking parc et centre aéré,,VER,verre,CA,aérien,4.0,Citec,Cyclea,,,Prestataire,Lely,Bon,Citec_Cyclea_4_A_c,,,,,5.781258,45.173514
761,"45.16487,5.76827",Nord-Est,Saint Martin d'Hères,,Place de la Libérté / Avenue de la Galochère (face au n° 32) / Village,,VER,verre,CA,aérien,3.0,Citec,Cyclea,,,Prestataire,Lely,Bon,Citec_Cyclea_3_A_c,,,,,5.768266,45.16487
803,"45.18435,5.75077",Nord-Est,Saint Martin d'Hères,,Place du 8 février 1962 / Ecole de Musique / Salle Ambroise Croizat,,VER,verre,CA,aérien,3.0,Citec,Cyclea,,,Prestataire,Lely,Bon,Citec_Cyclea_3_A_c,,,,,5.750772,45.18435
3179,"45.07314,5.72901",Grand-Sud,Champ sur Drac,,205-207 Rue Marcel Paul / Les Grands Vergers,,CS,collecte sélective,CE,enterré,5.0,Sulo,?,,,Prestataire,Lely,,,,2019-11-28,Nouveau site de collecte,,5.7290058405482,45.07314123441
6004,"45.21729,5.72199",Nord-Ouest,Saint Martin Le Vinoux,,Mas Caché (parking) / 2656 Route de Clémencières / Rue le Mas Caché,,OMR,ordures ménagères résiduelles,CSE,semi-enterré,5.0,ESE,?,,,Prestataire,Lely,,,,2019-12-16,Nouveau site de collecte,,5.7219866630048,45.217285387946
996,"45.21229,5.79059",Nord-Est,Meylan,,5 Rue de Chenevière / Passage des Grubins,,VER,verre,CA,aérien,3.0,Citec,Cyclea,,,Prestataire,Lely,Bon,Citec_Cyclea_3_A_c,,2009-11-25,,,5.790592,45.212285
998,"45.21158,5.79143",Nord-Est,Meylan,,"Avenue du Granier (rond point de Bavière, derrière arrêt bus ''Béalières'')",,VER,verre,CA,aérien,3.0,Citec,Cyclea,,,Prestataire,Lely,Bon,Citec_Cyclea_3_A_c,,2008,,,5.791425,45.211582
1004,"45.21376,5.7965",Nord-Est,Meylan,,Allée des Etangs / Chemin de la Dhuy (rond point école Maupertuis),,VER,verre,CA,aérien,4.0,Citec,Cyclea,,,Prestataire,Lely,Bon,Citec_Cyclea_4_A_c,,2008,,,5.7965,45.213757
1000,"45.21329,5.79183",Nord-Est,Meylan,,"""""Allée des Frênes (en bout d'impasse) / Résidence """"""""Les Parcs de Maupertuis""""""""""""",,VER,verre,CA,aérien,3.0,Citec,Cyclea,,,Prestataire,Lely,Bon,Citec_Cyclea_3_A_c,,2008,,,5.791831,45.213293
993,"45.21572,5.78501",Nord-Est,Meylan,,Chemin de Bérivière (restaurant lycée Grésivaudan côté logette),,VER,verre,CA,aérien,3.0,Citec,Cyclea,Citec Cycléa 3m3 crochet,,Prestataire,Lely,Bon,Citec_Cyclea_3_A_c,,2009-11-25,,2019-01-31,5.785007,45.215718
3131,"45.02843,5.70641",Grand-Sud,Saint Georges de Commiers,,Saint Pierre / Parking Eglise,,EMB,collecte sélective,CA,aérien,0.0,SNNECO,Eco-Bois,,,Prestataire,Lely,Bon,,,2015-10-XX,Installation colonne aérienne emballages en plus de la colonne enterrée existante en octobre 2015 (semaine 42),,5.706388,45.028493
3078,"45.03903,5.70569",Grand-Sud,Saint Georges de Commiers,,Combe des Guiberts / La Souchère / 42 Avenue de la Résistance,,EMB,collecte sélective,CE,enterré,0.0,Astech,,,,Prestataire,Lely,Bon,,,,,,5.705693,45.03903
6005,"45.21726,5.72201",Nord-Ouest,Saint Martin Le Vinoux,,Mas Caché (parking) / 2656 Route de Clémencières / Rue le Mas Caché,,CS,collecte sélective,CSE,semi-enterré,5.0,ESE,?,,,Prestataire,Lely,,,,2019-12-16,Nouveau site de collecte,,5.7220098910158,45.217257859563
5447,"45.23083,5.67967",Nord-Ouest,Saint Egrève,,21 Rue de la Contamine / Mas des Lys,Mas des Lys,CS,collecte sélective,CE,enterré,5.0,,,,,Régie,Métro,,,,2019-11-12,Nouveau site de collecte,,5.6795970056325,45.230832006279
2073,"45.04995,5.7077",Grand-Sud,Saint Georges de Commiers,,Les Isles / 870-1230 Rues des Isles,,PAP,collecte sélective,CE,enterré,0.0,Astech,,,,Prestataire,Lely,Bon,,,,,2016-03,5.707711,45.049961
3171,"45.02841,5.70641",Grand-Sud,Saint Georges de Commiers,,Saint Pierre / Parking Eglise,,EMB,collecte sélective,CA,aérien,4.0,STCM,Polytri,"STCM 4m3 Kinshofer, puce CAC5048200000077",,Prestataire,Lely,,,,2019-08-30,Conteneur Emballages supplémentaire sur site existant,,5.7064148550206,45.028410878978
6006,"45.20966,5.71822",Nord-Ouest,Saint Martin Le Vinoux,,Les Combes / Route de Clémencières / Chemin des Combes,,OMR,ordures ménagères résiduelles,CSE,semi-enterré,5.0,ESE,?,,,Prestataire,Lely,,,,2019-12-20,Nouveau site de collecte,,5.7182195339617,45.209655630117
6007,"45.20963,5.71823",Nord-Ouest,Saint Martin Le Vinoux,,Les Combes / Route de Clémencières / Chemin des Combes,,CS,collecte sélective,CSE,semi-enterré,5.0,ESE,?,,,Prestataire,Lely,,,,2019-12-20,Nouveau site de collecte,,5.718226560391,45.20963137712
999,"45.21047,5.79158",Nord-Est,Meylan,,Avenue de Chamechaude (Salle Decibeldonne),,VER,verre,CA,aérien,3.0,Citec,Cyclea,,,Prestataire,Lely,Bon,Citec_Cyclea_3_A_c,,2008,,,5.791576,45.210471
1321,"45.20824,5.79043",Nord-Est,Meylan,,23 Chemin du Vieux Chêne,,VER,verre,CA,aérien,4.0,Quadria,Cuba Bois,Modèle bois,,Prestataire,Lely,,,,2018-11-22,Nouveau site de collecte (expérimention 6 mois),,5.7904305607297,45.208239916303
1322,"45.20885,5.79582",Nord-Est,Meylan,,53 Chemin du Vieux Chêne,,VER,verre,CA,aérien,4.0,Quadria,Cuba Bois,Modèle bois,,Prestataire,Lely,,,,2018-11-22,Nouveau site de collecte (expérimention 6 mois),,5.7958208924989,45.208853916869
823,"45.18625,5.75393",Nord-Est,Saint Martin d'Hères,,Rue Alfred Kesler (vers rue Galilée),,VER,verre,CA,aérien,2.5,Citec,Cyclea,,,Prestataire,Lely,Sale,Citec_Cyclea_2.5_A_c,,,,,5.753932,45.186245
802,"45.18556,5.75191",Nord-Est,Saint Martin d'Hères,,Rue de la Biscuiterie / Rue Léon Geist,,VER,verre,CA,aérien,3.0,Citec,Cyclea,,,Prestataire,Lely,Bon,Citec_Cyclea_3_A_c,,,,,5.751905,45.185555
799,"45.18075,5.77271",Nord-Est,Saint Martin d'Hères,,Rue des Eparres (face au n° 12) / Rue Sacco et Vanzetti (parking),,VER,verre,CA,aérien,2.5,Inconnue,Inconnu,Colonne type ferraille,,Prestataire,Lely,Bon,Inconnue_Inconnu_2.5_A_c,,,,,5.772709,45.180749
791,"45.17365,5.75545",Nord-Est,Saint Martin d'Hères,,Avenue Potié / Rue de l'Essartié / Rue Voltaire (boulangerie),,VER,verre,CA,aérien,3.0,Quadria,Linéance,Quadria 3m3 Crochet V1996A + Cliiink,,Prestataire,Lely,Bon,Citec_Cyclea_3_A_c,,,,2019-01-25,5.755455,45.173648
770,"45.17048,5.7593",Nord-Est,Saint Martin d'Hères,,Avenue Potié / Rue Henri Barbusse,,VER,verre,CA,aérien,4.0,Quadria,Linéance,Quadria 4m3 Crochet V2015A + Cliiink,,Prestataire,Lely,Bon,Citec_Cyclea_3_A_c,,,,2019-01-25,5.759295,45.170483
1083,"45.16857,5.76297",Nord-Est,Saint Martin d'Hères,,Rue de Malfangeat / Rue Emile Combes / Rue Fernand Léger,,VER,verre,CA,aérien,3.0,UTPM,Ecobox,,,Prestataire,Lely,Bon,UTPM_Ecobox_3_A_c,,2013 (mai),,,5.762972,45.168568
842,"45.07706,5.66277",Grand-Sud,Saint Paul de Varces,,Stade de foot / Route du Vercors,,VER,verre,CA,aérien,4.0,Citec,Islea,Citec_Islea_4_A_c,,Prestataire,Lely,Très bon,Citec_Cyclea_3_A_c,,,,2018-08-02,5.662768,45.077056
759,"45.16259,5.76364",Nord-Est,Saint Martin d'Hères,,Rue Doyen Gosse / Avenue Jacques Prévert (rond point école Condorcet),,VER,verre,CA,aérien,4.0,Citec,Cyclea,,,Prestataire,Lely,Usé,Citec_Cyclea_4_A_c,,,,,5.763643,45.162593
760,"45.16207,5.76752",Nord-Est,Saint Martin d'Hères,,Rue Doyen Gosse / Rue Antoine (commerces),,VER,verre,CA,aérien,4.0,Citec,Cyclea Max,,,Prestataire,Lely,Usé,Citec_Cyclea Max_4_A_c,,,,,5.767521,45.162067
822,"45.1868,5.74783",Nord-Est,Saint Martin d'Hères,,"""""Rue du Docteur Roux (vers n° 6) / Accès garages résidence """"""""République""""""""""""",,VER,verre,CA,aérien,3.0,Citec,Cyclea,,,Prestataire,Lely,Bon,Citec_Cyclea_3_A_c,,,,,5.747829,45.1868
1283,"45.17461,5.75383",Nord-Est,Saint Martin d'Hères,,Rue Edmond Rostand / Rue Roger Frison Roche / Avenue Potié,,VER,verre,CA,aérien,3.0,Quadria,Linéance,,,Prestataire,Lely,Bon,Quadria_Linéance_3_A_c,,2018-03-16,,,5.753834,45.174607
1325,"45.18467,5.73445",Nord-Est,Grenoble,5,"Parc Paul Mistral (allée centrale, entre la vasque olympique et la Tour Perret)",,VER,verre,CA,aérien,3.0,UTPM,Ecobox,UTPM street art suite réparation; gps,,Régie,Métro,,,,2019-05-28,Nouveau site de collecte (pérénisation d'un site saisonnier),,5.7344521937845,45.184674477758
163,"45.19413,5.67708",Nord-Ouest,Fontaine,,4-5 Place Henri Chapays / Rue Eugène Charbonnier,,VER,verre,CA,aérien,3.0,Quadria,Linéance,Quadria 3m3 crochet V1904A Street art,,Prestataire,Lely,Bon,UTPM_Ecobox_2_A_c,,,,2018-11-07,5.67708,45.194133
1334,"45.14495,5.69602",Sud,Echirolles,,Allée des 120 Toises / Base de loisirs Pablo Picasso / Tennis couverts,,VER,verre,CA,aérien,3.0,UTPM,Ecobox,"UTPM 3m3 crochet, puce FA940482000004D8; gps",,Prestataire,Lely,,,,2019-09-09,Nouveau site de collecte,,5.6960207734723,45.144953702402
767,"45.16771,5.76189",Nord-Est,Saint Martin d'Hères,,Rue Fontenelle / Avenue Romain Rolland,,VER,verre,CA,aérien,3.0,Quadria,Linéance,,,Prestataire,Lely,Bon,Citec_Cyclea_3_A_c,,,,,5.76189,45.167706
779,"45.1673,5.75104",Nord-Est,Saint Martin d'Hères,,Rue Georges Sand / Ensemble sportif Henri Maurice,,VER,verre,CA,aérien,2.5,Citec,Cyclea,,,Prestataire,Lely,Usé,Citec_Cyclea_2.5_A_c,,,,,5.751043,45.167302
1284,"45.17937,5.76836",Nord-Est,Saint Martin d'Hères,,Rue Joliot Curie / Rue Flora Tristan,,VER,verre,CA,aérien,3.0,Quadria,Linéance,,,Prestataire,Lely,Bon,Quadria_Linéance_3_A_c,,2018-03-16,,,5.768363,45.179373
1142,"45.07339,5.73095",Grand-Sud,Champ sur Drac,,Chemin du Boutey (face au n° 46),,VER,verre,CE,enterré,4.0,Sulo,?,"Bac Sulo 4m3 Kinshofer, puce D19C04820000001A",,Prestataire,Lely,Bon,SNNECO_Eco-DI_3_A_k,,,,2019-10-18,5.729899,45.073842
1324,"45.17034,5.80512",Nord-Est,Venon,,192 Chemin de l'Ecole / Le Mollaret,,VER,verre,CA,aérien,3.0,Biloba,Ecobois Neo,Biloba Ecobois 3m3 Crochet,,Prestataire,Lely,,,,2019-05-22,Nouveau site de collecte,,5.8051200094039,45.170338197995
794,"45.18216,5.75665",Nord-Est,Saint Martin d'Hères,,Rue Friedrich Engels / Impasse Louis Jouvet,,VER,verre,CA,aérien,3.0,Citec,Cyclea,Citec 3m3 Crochet + Cliiink,,Prestataire,Lely,Sale,Citec_Cyclea_2.5_A_c,,,,2019-01-25,5.756647,45.182163
1080,"45.17646,5.76589",Nord-Est,Saint Martin d'Hères,,Rue Henri Wallon / Rue Massenet / Gymnase Colette Besson (parking),,VER,verre,CA,aérien,4.0,Quadria,Linéance,Quadria 4m3 Crochet V2013A + Cliiink,,Prestataire,Lely,Bon,UTPM_Ecobox_3_A_c,,2013 (mai),,2019-01-25,5.765893,45.17646
1109,"45.27659,5.7578",Nord-Est,Sarcenas,,Le Pied du Croz / Route D57,,VER,verre,CA,aérien,4.0,SNNECO,Eco-DI/Eco-Bois,,,Prestataire,Lely,Bon,SNNECO_EcoBois/EcoDI_4_A_c,,,,Conteneurs semi-enterrés,5.757794,45.276535
189,"45.20286,5.68582",Nord-Ouest,Fontaine,,10 Rue de la Sure / ZI de l'Argentière,,VER,verre,CA,aérien,2.5,Citec,Cyclea,,,Prestataire,Lely,Bon,Citec_Cyclea_2.5_A_c,,,,,5.685822,45.202863
201,"45.18789,5.69457",Nord-Ouest,Fontaine,,11-13 Rue d'Alpignano / La Chapotière (parking),,VER,verre,CA,aérien,2.5,Citec,Cyclea,,,Prestataire,Lely,Bon,Citec_Cyclea_2.5_A_c,,,,,5.694575,45.187885
186,"45.19834,5.69281",Nord-Ouest,Fontaine,,128 Boulevard Joliot Curie (face n° 121-123) / Place de la Commune de Paris / ZAC Bastille,,VER,verre,CE,enterré,4.0,Citec,Evolution S,Type G4 BAMMENS,,Prestataire,Lely,Bon,Citec_Evolution S_4_E_,,,,,5.692807,45.198336
1308,"45.18736,5.69224",Nord-Ouest,Fontaine,,14 Boulevard Joliot Curie (face n°19) / Parking halte-garderie Georges Sand,,VER,verre,CA,aérien,4.0,Citec,Cyclea,,,Prestataire,Lely,Bon,Citec_Cyclea_4_A_c,,???? (2018-12-05),????,,5.692242,45.187361
188,"45.20148,5.6898",Nord-Ouest,Fontaine,,149-169 Boulevard Joliot Curie / Résidence Robespierre / proximité Stade Robespierre,,VER,verre,CA,aérien,2.5,Citec,Cyclea,,,Prestataire,Lely,Bon,Citec_Cyclea_2.5_A_c,,,,,5.689802,45.201476
199,"45.18931,5.6984",Nord-Ouest,Fontaine,,18-20 Avenue Aristide Briand / Parking Marché Gabriel Péri / derrière WC publics,,VER,verre,CA,aérien,4.2,Citec,Cyclea Max,,,Prestataire,Lely,Bon,Citec_Cyclea Max_4.2_A_c,,,,,5.698398,45.18931
3025,"45.11385,5.72846",Grand-Sud,Champagnier,,Place du Lacca,,EMB,emballages,CE,enterré,0.0,Astech,,,,Prestataire,Lely,Sale,,,,,,5.728456,45.113847
202,"45.18907,5.69355",Nord-Ouest,Fontaine,,29-31 Boulevard Joliot Curie / Angle Avenue Aristide Briand,,VER,verre,CE,enterré,4.0,Citec,Evolution S,Type G4 BAMMENS,,Prestataire,Lely,Bon,Citec_Evolution S_4_E_k,,,,,5.693546,45.189074
184,"45.19422,5.69951",Nord-Ouest,Fontaine,,3 Rue Charles Michel,,VER,verre,CA,aérien,2.5,Citec,Cyclea,,,Prestataire,Lely,Bon,Citec_Cyclea_2.5_A_c,,,,,5.699511,45.194218
168,"45.19534,5.66731",Nord-Ouest,Fontaine,,3-11 Rue de la République,,VER,verre,CA,aérien,2.5,Citec,Cyclea,,,Prestataire,Lely,Bon,Citec_Cyclea_2.5_A_c,,,,,5.667305,45.195338
1030,"45.17116,5.80651",Nord-Est,Venon,,Route départementale / Pré Bousson (plateforme de tri),,VER,verre,CA,aérien,4.0,Biloba,Ecobois Neo,,,Prestataire,Lely,Bon,SNNECO_EcoBois/EcoDI_4_A_c,,2010 (septembre),,2019-03-07,5.806506,45.171157
185,"45.19658,5.69858",Nord-Ouest,Fontaine,,44 Rue Doyen Gosse / Quai du Drac (vers n° 63) / Rue Paul Vaillant Couturier / Parking Copro les Pervenches,,VER,verre,CA,aérien,2.5,Citec,Cyclea,,,Prestataire,Lely,Bon,Citec_Cyclea_2.5_A_c,,,,,5.69858,45.196582
200,"45.18923,5.70065",Nord-Ouest,Fontaine,,5 Quai du Drac / Pont du Drac,,VER,verre,CA,aérien,2.5,Citec,,,,Prestataire,Lely,Bon,Citec__2.5_A_c,,,,,5.700651,45.189225
198,"45.1919,5.69715",Nord-Ouest,Fontaine,,50-52 Avenue Jean Jaurès / Bibliothèque Paul Eluard / Square Jean Jaurès,,VER,verre,CA,aérien,2.5,Citec,Cyclea,,,Prestataire,Lely,Très bon,Citec_Cyclea_2.5_A_c,,,,,5.697153,45.191903
183,"45.19674,5.69654",Nord-Ouest,Fontaine,,50-54 Rue Henri Barbusse / Square Eugène Chavant (parking),,VER,verre,CA,aérien,2.5,Citec,Cyclea,,,Prestataire,Lely,Bon,Citec_Cyclea_2.5_A_c,,,,,5.696538,45.196741
171,"45.19798,5.68864",Nord-Ouest,Fontaine,,54 Rue Jean Pain / Rue Jules Guesde (côté arrêt de bus),,VER,verre,CA,aérien,2.5,Citec,Cyclea,,,Prestataire,Lely,Bon,Citec_Cyclea_2.5_A_c,,,,,5.688635,45.197979
164,"45.19626,5.67688",Nord-Ouest,Fontaine,,61 Rue Joseph Bertoin,,VER,verre,CA,aérien,2.5,Citec,Cyclea,,,Prestataire,Lely,Bon,Citec_Cyclea_2.5_A_c,,,,,5.676879,45.196259
195,"45.19566,5.69418",Nord-Ouest,Fontaine,,85 Boulevard Joliot Curie (ancienne station essence) / Commerces Résidence du Verger,,VER,verre,CA,aérien,2.5,Citec,Cyclea,,,Prestataire,Lely,Bon,Citec_Cyclea_2.5_A_c,,,,,5.694183,45.195665
190,"45.19214,5.68879",Nord-Ouest,Fontaine,,99-103 Avenue du Vercors / square derrière mairie,,VER,verre,CA,aérien,2.5,Quadria,Linéance,,,Prestataire,Lely,Bon,Citec_Cyclea_2.5_A_c,,,,,5.688793,45.192141
192,"45.1901,5.69123",Nord-Ouest,Fontaine,,Avenue Aristide Briand (face au n°65) / Rue Yves Farge,,VER,verre,CA,aérien,3.0,Quadria,Linéance,quadria 3m3 Crochet V2060A,,Prestataire,Lely,HS,Citec_Cyclea_2.5_A_c,,,,2019-04-30,5.691228,45.190098
1200,"45.0866,5.77024",Grand-Sud,Vizille,,Camping Le Bois de Cornage / 110 Chemin du Camping,,VER,verre,CA,aérien,4.0,SNNECO,Eco-Bois,,,Prestataire,Lely,Bon,SNNECO_Eco-Bois_4_A_k,,,,,5.770236,45.086601
921,"45.08881,5.67888",Grand-Sud,Varces Allières et Risset,,10 Rue Gabriel Péri / Rue du Portail Rouge,,VER,verre,CA,aérien,3.0,Citec,Cyclea,Citec_Cyclea_3_A_c,,Prestataire,Lely,Bon,Citec_Islea_4_A_c,,,,2018-08-02,5.678875,45.088808
1313,"45.20452,5.68618",Nord-Ouest,Fontaine,,CTE Nord-Ouest / 12 rue Baptiste Marcet,,VER,verre,CA,aérien,2.5,Citec,Cyclea,,,Prestataire,Lely,Bon,,,2019-01-17,Nouveau site de collecte,,5.686182,45.204524
196,"45.19231,5.69527",Nord-Ouest,Fontaine,,39 Avenue du Vercors (face aux n° 48 et 50) / MJC Nelson Mandela,,VER,verre,CA,aérien,2.5,Quadria,Linéance,,,Prestataire,Lely,Très bon,Citec_Cyclea_2.5_A_c,,,,,5.695271,45.192306
172,"45.19725,5.68518",Nord-Ouest,Fontaine,,2-3 Rue du Grand Veymont,,VER,verre,CA,aérien,4.0,Quadria,Linéance,,,Prestataire,Lely,Bon,UTPM_PV400_4_A_c,,,,,5.685177,45.197247
206,"45.18539,5.68578",Nord-Ouest,Fontaine,,Déchèterie / 6 rue René Camphin / ZI des Vouillants,,VER,verre,CA,aérien,4.0,Citec,Cyclea,,,Prestataire,Lely,Usé,Citec_Cyclea_4_A_c,,,,2011-02-01,5.685778,45.185386
960,"45.1958,5.69047",Nord-Ouest,Fontaine,,Mail Marcel Cachin / Rue Yves Farges (face Square la Palombière),,VER,verre,CE,enterré,4.0,Citec,Evolution S,Type G4 BAMMENS,,Prestataire,Lely,Bon,Citec_Evolution S_4_E_k,,,,,5.690475,45.195799
1032,"45.19418,5.67203",Nord-Ouest,Fontaine,,Parc de La Poya (dans le parc - allée centrale) / 16 Rue Abbé Vincent,,VER,verre,CA,aérien,2.5,Citec,Cyclea,,,Prestataire,Lely,Bon,Citec_Cyclea_2.5_A_c,,,,,5.672028,45.194177
166,"45.19744,5.67221",Nord-Ouest,Fontaine,,Parking Géant (côté terminus tram) / 120 boulevard Paul Langevin,,VER,verre,CA,aérien,4.0,Citec,Cyclea,,,Prestataire,Lely,Bon,Citec_Cyclea_4_A_c,,,,janvier 2011,5.672211,45.197435
162,"45.1851,5.68876",Nord-Ouest,Fontaine,,Parking RIE (Restaurant Inter Entreprises) / Allée des Balmes (passage sous Boulvard Paul Langevin) / Rue René Camphin / Face Parc Karl Marx,,VER,verre,CA,aérien,4.0,Citec,Cyclea,,,Prestataire,Lely,Bon,Citec_Cyclea_4_A_c,,,,juillet 2011,5.688762,45.185098
205,"45.1911,5.69931",Nord-Ouest,Fontaine,,Rue de la Liberté / Rue François Janolin / Ecole Pont du Drac,,VER,verre,CA,aérien,3.0,Citec,Cyclea,,,Prestataire,Lely,Bon,Citec_Cyclea_3_A_c,,,,,5.699308,45.191095
169,"45.2,5.68144",Nord-Ouest,Fontaine,,Rue de Sassenage / Rue Suzanne Valadon,,VER,verre,CA,aérien,2.5,Citec,Cyclea,,,Prestataire,Lely,Bon,Citec_Cyclea_2.5_A_c,,,,,5.681436,45.199999
191,"45.19094,5.69013",Nord-Ouest,Fontaine,,Rue des Marronniers / Rue de la Liberté,,VER,verre,CA,aérien,4.0,Citec,,,,Prestataire,Lely,Bon,Citec__4_A_c,,,,,5.690134,45.190939
170,"45.19958,5.68378",Nord-Ouest,Fontaine,,Rue François Marceau (Square) / Rue des Buissonnées / Rue Joseph Bertoin,,VER,verre,CA,aérien,4.0,Citec,Cyclea,,,Prestataire,Lely,Bon,Citec_Cyclea_4_A_c,,,,,5.68378,45.19958
203,"45.18967,5.69002",Nord-Ouest,Fontaine,,Rue Paul Eluard (face au n° 19) / Rue de la Robertière,,VER,verre,CA,aérien,2.5,Citec,Cyclea,,,Prestataire,Lely,Bon,Citec_Cyclea_2.5_A_c,,,,,5.690025,45.189667
5431,"45.1649,5.73146",Sud,Grenoble,6,42 Galerie de l'Arlequin,Villeneuve,OMR,ordures ménagères résiduelles,CE,enterré,5.0,Plastic Omnium,Minimax 4,,double tambour,Régie,Métro,Bon,,,2018-09-17,!!! 2018 !!!,,5.731459,45.164897
165,"45.19794,5.68047",Nord-Ouest,Fontaine,,Square André Hermitte (parking) / Rue Joseph Bertoin / Rue des Alpes,,VER,verre,CA,aérien,4.0,UTPM,PV400,,,Prestataire,Lely,Usé,UTPM_PV400_4_A_c,,,,,5.680473,45.197941
1093,"45.09599,5.68362",Grand-Sud,Varces Allières et Risset,,Rue des Tanneurs / Rue de la Ganterie (devant commerces),,VER,verre,CA,aérien,4.0,Quadria,Linéance,Quadria 4m3 crochet V1926A,,Prestataire,Lely,Bon,UTPM_Ecobox_3_A_c,,2015-01-19,matériel neuf au 2015-01-19,2018-10-31,5.683624,45.095993
1219,"45.05602,5.77247",Grand-Sud,Vizille,,Déchèterie (Péage de Vizille) / 526 Rue du Maquis de l'Oisans (RD 1091),,VER,verre,CA,aérien,0.0,?,?,bois Kinshofer,,Prestataire,Lely,,Citec_Cyclea_2.5_A_c,,,,2018-07-11,5.772468,45.056022
549,"45.0217,5.64537",Grand-Sud,Le Gua,,Les Saillants / Mairie,,VER,verre,CA,aérien,4.0,Citec,Cyclea,Citec Cycléa 4m3 crochet,,Prestataire,Lely,Bon,SNNECO_Eco-Bois_4_A_c,,,,2018-12-13,5.645373,45.021699
1310,"45.08912,5.6848",Grand-Sud,Varces Allières et Risset,,8 Rue Charles De Gaulle / Parking,,VER,verre,CA,aérien,3.0,Citec,Cyclea,,,Prestataire,Lely,Bon,Citec_Cyclea_3_A_c,,2018-12-11,Nouveau site de collecte,,5.6848,45.089118
1222,"45.0553,5.77764",Grand-Sud,Vizille,,Ecole Paul Langevin (Péage de Vizille) / 441 Rue Paul Langevin,,VER,verre,CA,aérien,4.0,SNNECO,Eco-Bois,,,Prestataire,Lely,Sale,SNNECO_Eco-Bois_4_A_k,,,,,5.777642,45.055298
1206,"45.0822,5.77383",Grand-Sud,Vizille,,EHPAD / 218 Chemin des Mattons,,VER,verre,CA,aérien,4.0,SNNECO,Eco-Bois,,,Prestataire,Lely,Bon,SNNECO_Eco-Bois_4_A_k,,,,,5.773835,45.082203
1333,"45.20517,5.77847",Nord-Est,Meylan,,53 Boulevard des Alpes / Gymnase des Buclos (parking),,VER,verre,CA,aérien,2.5,Citec,Cyclea,"Citec 2m3 Crochet, puce E2790482000028E6; gps",,Prestataire,Lely,,,,2019-09-06,Nouveau site de collecte,,5.7784689084066,45.20516812782
1267,"45.10954,5.66588",Grand-Sud,Claix,,23 Route du Château,,VER,verre,CA,aérien,3.0,Quadria,Linéance,,,Prestataire,Lely,Sale,Quadria_Linéance_3_A_c,,2017-11-16,,,5.665879,45.109544
1315,"45.25318,5.66232",Nord-Ouest,Fontanil Cornillon,,1 rue du Lanfrey,,VER,verre,CE,enterré,4.0,Plastic Omnium,Minimax 4,,,Prestataire,Lely,Bon,,,2019-02-08,Nouveau site de collecte,,5.662318,45.25318
5190,"45.16803,5.73215",Sud,Grenoble,6,44-46 Avenue La Bruyère,Villeneuve,CS,collecte sélective,CE,enterré,5.0,Citec,,,,Régie,Métro,Bon,,,,,,5.732151,45.168026
1096,"45.24521,5.66728",Nord-Ouest,Saint Egrève,,22ter-24-26 Rue de la Chartreuse,,VER,verre,CE,enterré,4.0,Citec,,,,Prestataire,Lely,Bon,Citec__4_E_k,,2015-03-XX,Installation colonne aérienne provisoire avant mise en place colonne enterrée définitive (2015-12-15),,5.667277,45.245212
1105,"45.25911,5.77714",Nord-Est,Le Sappey en Chartreuse,,Entrée village / Crèche / La Charmette / Route du Col de Porte (Route D512),,VER,verre,CA,aérien,4.0,SNNECO,Eco-Bois,Type bois,,Prestataire,Lely,Bon,SNNECO_EcoBois_4_A_c,,,,,5.77714,45.259109
1106,"45.26003,5.77625",Nord-Est,Le Sappey en Chartreuse,,La Virette / Camping / Ecole / Place des Justes,,VER,verre,CA,aérien,4.0,SNNECO,Eco-Bois,Type bois,,Prestataire,Lely,Bon,SNNECO_EcoBois_4_A_c,,,,,5.776255,45.26003
207,"45.2487,5.6642",Nord-Ouest,Fontanil Cornillon,,Rue Chancelière / Rue Babière,,VER,verre,CE,enterré,4.0,Citec,,,,Prestataire,Lely,Bon,Citec__4_E_,,,,,5.664199,45.248698
1161,"45.01033,5.69769",Grand-Sud,Notre Dame de Commiers,,Cimetière / 1-3 Chemin de la Cluse (nouveau cimetière situé 100m en contrebas de l'église),,VER,verre,CA,aérien,4.0,SNNECO,Eco-Bois,,,Prestataire,Lely,Bon,SNNECO_Eco-Bois_4_A_k,,,,,5.697676,45.010318
1289,"45.19839,5.83388",Nord-Est,Domène,,2 Rue Angelo Brunato (parking) / Rue Jean Jaurès,,VER,verre,CA,aérien,3.0,Quadria,Linéance,,,Prestataire,Lely,Bon,Quadria_Linéance_3_A_c,,2018-05-29,Nouveau site de collecte,,5.833882,45.198392
1270,"45.18562,5.80617",Nord-Est,Gières,,39 Rue de la Fontaine,,VER,verre,CA,aérien,3.0,Quadria,Linéance,,,Prestataire,Lely,Bon,Quadria_Linéance_3_A_c,,2017-12-11,,,5.806173,45.185618
215,"45.18859,5.77764",Nord-Est,Gières,,4 Rue des Essards / ZI Mayencin 1,,VER,verre,CA,aérien,2.5,Citec,Cyclea,,,Prestataire,Lely,Bon,Citec_Cyclea_2.5_A_c,,,,2011 septembre,5.777643,45.18859
218,"45.18595,5.7888",Nord-Est,Gières,,4 Rue des Sports / Rue du Port (Genin Motoculture),,VER,verre,CA,aérien,3.0,Citec,Cyclea,,,Prestataire,Lely,Sale,Citec_Cyclea_3_A_c,,,,2014-06-18,5.788801,45.185948
225,"45.1873,5.80755",Nord-Est,Gières,,5-7 Rue des Palettes (côté garages),,VER,verre,CA,aérien,3.0,Plastic Omnium,Citybulle,,,Prestataire,Lely,Bon,Plastic Omnium_Citybulle_3_A_c,,,,,5.807548,45.187302
1269,"45.18394,5.78571",Nord-Est,Gières,,8 Rue du Chamandier,,VER,verre,CA,aérien,3.0,Quadria,Linéance,,,Prestataire,Lely,Bon,Quadria_Linéance_3_A_c,,2017-12-11,,,5.785709,45.183941
707,"45.23819,5.63521",Nord-Ouest,Noyarey,,457 Avenue Saint Jean / Immeuble le St Jean / Centre commercial,,VER,verre,CA,aérien,4.0,Quadria,Linéance,,,Prestataire,Lely,Bon,Quadria_Lineance_4_A_c,,,,2018-10-11,5.635206,45.238191
970,"45.20762,5.76183",Nord-Est,Meylan,,2-4 Rue Le Poulet (Ecole Mi-Plaine / Gymnase des Aiguinards),,VER,verre,CA,aérien,2.5,Citec,Cyclea,,,Prestataire,Lely,Bon,Citec_Cyclea_2.5_A_c,,2009,,,5.761826,45.207616
967,"45.20524,5.75862",Nord-Est,Meylan,,25 Avenue Paine Fleurie (entrée résidence Chinon),,VER,verre,CA,aérien,3.0,Citec,Cyclea,,,Prestataire,Lely,Bon,Citec_Cyclea_3_A_c,,2008,,,5.758618,45.205244
985,"45.21146,5.77341",Nord-Est,Meylan,,27 Chemin des Buclos / Avenue de Verdun (parking restaurant le Fil des Jours),,VER,verre,CA,aérien,3.0,Citec,Cyclea,,,Prestataire,Lely,Bon,Citec_Cyclea_3_A_c,,2008,,,5.773413,45.211458
1007,"45.22068,5.79735",Nord-Est,Meylan,,Allée de Châteauvieux (côté four à pain),,VER,verre,CA,aérien,2.5,Citec,Cyclea,,,Prestataire,Lely,Bon,Citec_Cyclea_2.5_A_c,,2009-11-25,,,5.797349,45.220684
980,"45.20596,5.77297",Nord-Est,Meylan,,Allée du Bret (parking centre commercial des Buclos),,VER,verre,CA,aérien,3.0,Citec,Cyclea,,,Prestataire,Lely,Bon,Citec_Cyclea_3_A_c,,2008,,,5.772971,45.205958
1013,"45.22182,5.7784",Nord-Est,Meylan,,Chemin des Villauds / Clos des Capucins (parking en contre-bas),,VER,verre,CA,aérien,2.5,Citec,Cyclea,,,Prestataire,Lely,Bon,Citec_Cyclea_2.5_A_c,,2009 août 12,,,5.778395,45.22182
815,"45.18625,5.76404",Nord-Est,Saint Martin d'Hères,,25 Rue des Glairons / Rue Diderot,,VER,verre,CA,aérien,2.5,Citec,Cyclea,,,Prestataire,Lely,Bon,Citec_Cyclea_2.5_A_c,,,,2011-été,5.764043,45.186255
64,"45.14736,5.72181",Sud,Echirolles,,Rue Antoine Polotti / Rue Albert Londres,,VER,verre,CE,enterré,3.0,Citec,,,,Prestataire,Lely,Sale,Citec__3_E_c,,,,,5.721807,45.147359
800,"45.17976,5.76974",Nord-Est,Saint Martin d'Hères,,Avenue Jean Jaurès / Rue Elsa Triolet,,VER,verre,CA,aérien,4.0,Quadria,Linéance,Quadria 4m3 Crochet V2021A + Cliiink,,Prestataire,Lely,Bon,(Citec_Islea_3_A_c) ???,,,,2019-01-25,5.769739,45.179763
820,"45.19372,5.75573",Nord-Est,Saint Martin d'Hères,,Rue des Taillées / Rue Marcel Pagnol (passage du tram),,VER,verre,CA,aérien,3.0,Quadria,Linéance,Quadria 3m3 Crochet V1990A + Cliiink,,Prestataire,Lely,Bon,Citec_Cyclea_3_A_c,,,,2019-01-25,5.755726,45.193724
961,"45.19072,5.68761",Nord-Ouest,Fontaine,,38 Avenue Lénine / Salle de spectacle La Source,,VER,verre,CE,enterré,4.0,Citec,Evolution S,Type G4 BAMMENS,,Prestataire,Lely,Bon,Citec_Evolution S_4_E_k,,,,2013 (janvier),5.687615,45.190724
1095,"45.20046,5.77063",Nord-Est,Meylan,,Chemin de l'Ile d'Amour / Chemin des Pépinères (parking),,VER,verre,CA,aérien,3.0,UTPM,Ecobox,,,Prestataire,Lely,Bon,UTPM_Ecobox_3_A_c,,,,,5.77063,45.200465
875,"45.16948,5.68031",Nord-Ouest,Seyssinet Pariset,,Village / 40-42 Avenue Hector Berlioz (D106b) / Chemin des Fusillés,,VER,verre,CA,aérien,2.5,EcoVert,Inconnu,,,Prestataire,Lely,Usé,EcoVert__2.5_A_c,,,,,5.680314,45.169483
908,"45.15731,5.67843",Nord-Ouest,Seyssins,,35-49 Route de Saint Nizier / Rue du Priou / Rue de la Paix,,VER,verre,CA,aérien,3.0,UTPM,Ecobox,,,Prestataire,Lely,Sale,UTPM_Ecobox_3_A_c,,,,,5.67843,45.157314
1259,"45.16019,5.69719",Nord-Ouest,Seyssins,,4 Rue Jean Moulin / Hôtel Campanile,,VER,verre,CA,aérien,2.0,Citec,Cyclea,,,Prestataire,Lely,Sale,Citec_Cyclea_2_A_c,,2017-09-21,,,5.697195,45.160192
913,"45.16694,5.69903",Nord-Ouest,Seyssins,,58 Rue des Allobroges / Camping,,VER,verre,CA,aérien,4.0,Citec,Cyclea,,,Prestataire,Lely,Sale,Citec_Cyclea_4_A_c,,,,2010 (décembre),5.699032,45.166937
562,"45.13014,5.69575",Grand-Sud,Le Pont de Claix,,12-14 Rue Mozart / Ecole Iles de Mars / Crèche municipale / Arc en Ciel (commerces) W1203,,VER,verre,CA,aérien,4.0,Citec,Cyclea,,,Prestataire,Lely,Bon,Citec_Cyclea_4_A_c,,,,,5.695748,45.130136
557,"45.13231,5.69644",Grand-Sud,Le Pont de Claix,,13 Rue Stendhal / Avenue Victor Hugo,,VER,verre,CA,aérien,3.0,Citec,Cyclea,,,Prestataire,Lely,Bon,Citec_Cyclea_2.5_A_c,,,,2019-01-21,5.696439,45.132311
570,"45.12234,5.69954",Grand-Sud,Le Pont de Claix,,17-21 Avenue du Maquis de l'Oisans / Square / City-stade Taillefer / Ancienne école,,VER,verre,CA,aérien,4.0,Citec,Cyclea,,,Prestataire,Lely,Bon,Citec_Cyclea_4_A_c,,,,,5.699535,45.12234
573,"45.12056,5.7001",Grand-Sud,Le Pont de Claix,,Avenue Raffin Caboisse / Boulodrome,,VER,verre,CA,aérien,2.5,Citec,Cyclea,Citec (Plastique / Crochet,,Prestataire,Lely,Sale,Citec_Cyclea_2.5_A_c,,,,2018-05-25,5.7001,45.120557
582,"45.13416,5.71168",Grand-Sud,Le Pont de Claix,,Rue Antoine Barnave / City-stade Grand Galet,,VER,verre,CA,aérien,3.0,UTPM,Ecobox,UTPM 3m3 Crochet,,Prestataire,Lely,Sale,Citec_Cyclea_2.5_A_c,,,,2018-02-01,5.711679,45.134164
781,"45.16344,5.75215",Nord-Est,Saint Martin d'Hères,,Rue Emile Zola / Rue Beethoven (à côté pharmacie),,VER,verre,CA,aérien,3.0,Citec,Cyclea,,,Prestataire,Lely,Bon,Citec_Cyclea_3_A_c,,,,,5.752149,45.163439
213,"45.25162,5.65765",Nord-Ouest,Fontanil Cornillon,,49 Rue Pré Didier / Zone Industrielle,,VER,verre,CA,aérien,3.0,UTPM,PV387,,,Prestataire,Lely,Bon,UTPM_PV387_3_A_c,,,,,5.657655,45.25162
575,"45.11394,5.7056",Grand-Sud,Le Pont de Claix,,Allée de Vassieux / Avenue du Maquis de l'Oisans (RD 1085A) / Beau Site / Arrêt bus,,VER,verre,CA,aérien,2.5,Citec,Cyclea,,,Prestataire,Lely,Sale,Citec_Cyclea_2.5_A_c,,,,,5.705601,45.113937
565,"45.13198,5.694",Grand-Sud,Le Pont de Claix,,Allée Jacques Prévert / Résidence les Elfes,,VER,verre,CA,aérien,2.5,Citec,Cyclea,,,Prestataire,Lely,Bon,Citec_Cyclea_2.5_A_c,,,,,5.694002,45.131975
561,"45.12672,5.6948",Grand-Sud,Le Pont de Claix,,Place de Verdun / Rue Jean Jaurès / Rue des Alpes,,VER,verre,CA,aérien,2.5,Citec,Cyclea,,,Prestataire,Lely,Sale,Citec_Cyclea_2.5_A_c,,,,,5.694799,45.126719
576,"45.13487,5.70772",Grand-Sud,Le Pont de Claix,,Rue Docteur Valois / Rue des Droits de l'Homme,,VER,verre,CA,aérien,2.5,Citec,Cyclea,,,Prestataire,Lely,Sale,Citec_Cyclea_2.5_A_c,,,,,5.707716,45.134875
583,"45.13896,5.70072",Grand-Sud,Le Pont de Claix,,2 Rue Firmin Robert / Flottibulle / Tennis couverts,,VER,verre,CA,aérien,4.0,Citec,Cyclea,,,Prestataire,Lely,Bon,Citec_Cyclea_4_A_c,,,,,5.700718,45.13896
577,"45.13652,5.70924",Grand-Sud,Le Pont de Claix,,25 Avenue Général de Gaulle / Commerces résidence des Saules,,VER,verre,CA,aérien,4.0,Citec,Cyclea,,,Prestataire,Lely,Sale,Citec_Cyclea_4_A_c,,,,,5.709236,45.136519
584,"45.14133,5.69913",Grand-Sud,Le Pont de Claix,,Allée des Trembles (terminus bus),,VER,verre,CA,aérien,4.2,Citec,Cyclea Max,,,Prestataire,Lely,Sale,Citec_Cyclea Max_4.2_A_c,,,,,5.699131,45.14133
87,"45.14455,5.71632",Sud,Echirolles,,16-22 Av du 8 Mai 1945 (vers immeuble rotonde),,VER,verre,CE,enterré,3.0,-,,,,Prestataire,Lely,Sale,-__3_E_c,,,,,5.716322,45.144546
1117,"45.13677,5.76874",Sud,Brié et Angonnes,,Parking Souveyron / Route de Montavie / Chemin de la Léchère,,VER,verre,CA,aérien,4.0,SNNECO,Eco-Bois,,,Prestataire,Lely,Sale,SNNECO_Eco-Bois_4_A_k,,,,,5.768739,45.136769
83,"45.13598,5.71513",Sud,Echirolles,,1 Rue de Stalingrad (face au n°8) / Résidence Le Parc des Essarts,,VER,verre,CA,aérien,3.0,EcoVert,Inconnu,,,Prestataire,Lely,Usé,EcoVert_Inconnu_3_A_c,,,,,5.715132,45.135985
82,"45.13776,5.71402",Sud,Echirolles,,Rue Clément Ader / Rue Denis Papin,,VER,verre,CA,aérien,3.0,EcoVert,Inconnu,,,Prestataire,Lely,Sale,EcoVert_Inconnu_3_A_c,,,,,5.714022,45.137759
718,"45.24479,5.67668",Nord-Ouest,Saint Egrève,,31 Avenue de Karben / Rond point Hôtel / Face rocher Escalade,,VER,verre,CA,aérien,3.0,Alpes Composites,Inconnu,,,Prestataire,Lely,Bon,Alpes Composites_Inconnu_3_A_c,,,,,5.676675,45.244788
720,"45.24402,5.6787",Nord-Ouest,Saint Egrève,,60-102 Avenue de Karben,,VER,verre,CA,aérien,3.0,Alpes Composites,Inconnu,,,Prestataire,Lely,Bon,Alpes Composites_Inconnu_3_A_c,,,,,5.678701,45.244017
721,"45.24128,5.67851",Nord-Ouest,Saint Egrève,,Avenue de Karben / Rue de l'Angelus / Zone d'activités Gavanières,,VER,verre,CA,aérien,2.5,Citec,Cyclea,,,Prestataire,Lely,Usé,Citec_Cyclea_2.5_A_c,,,,,5.678512,45.24128
99,"45.15242,5.70485",Sud,Echirolles,,10 Avenue du Gésivaudan / Allée Ronsard / Auberge de Jeunesse,,VER,verre,CA,aérien,3.0,Citec,Cyclea,,,Prestataire,Lely,Sale,Citec_Cyclea_3_A_c,,,,,5.704851,45.152416
892,"45.18559,5.69468",Nord-Ouest,Seyssinet Pariset,,5 Rue Aimé Bouchayer / Ecole Vercors / Lycée Aristide Bergès,,VER,verre,CA,aérien,3.0,Quadria,Linéance,Quadria 3m3 crochet V1852A,,Prestataire,Lely,Bon,EcoVert_Inconnu_2.5_A_c,,,,2018-07-04,5.694685,45.185589
116,"45.14533,5.7049",Sud,Echirolles,,119-123 Cours Jean Jaurès,,VER,verre,CA,aérien,3.0,UTPM,Ecobox,,,Prestataire,Lely,Sale,UTPM_Ecobox_3_A_c,,,,2012-02-08,5.704903,45.145327
741,"45.23713,5.68006",Nord-Ouest,Saint Egrève,,50 Rue Casimir Brenier,,VER,verre,CA,aérien,3.0,Alpes Composites,Inconnu,,,Prestataire,Lely,Usé,Alpes Composites_Inconnu_3_A_c,,,,,5.680064,45.237129
745,"45.23095,5.68474",Nord-Ouest,Saint Egrève,,Rue des Sablons / Rue des Verdiers / Avenue du Collège,,VER,verre,CA,aérien,3.0,UTPM,Ecobox,,,Prestataire,Lely,Bon,UTPM_Ecobox_3_A_c,,,,,5.684745,45.230946
766,"45.16981,5.76366",Nord-Est,Saint Martin d'Hères,,4 Rue Emile Combe / Commerces / 2,,VER,verre,CA,aérien,4.0,Quadria,Linéance,Quadria 4m3 crochet N° V1800A,,Prestataire,Lely,Bon,Citec_Cyclea_2.5_A_c,,,,2018-01-26,5.76366,45.169813
775,"45.17542,5.76343",Nord-Est,Saint Martin d'Hères,,"Rue Henri Wallon (devant square, jeux pour enfants) / Face au Collège Henri Wallon",,VER,verre,CA,aérien,3.0,Citec,Cyclea,Citec 3m3 Crochet + Cliiink,,Prestataire,Lely,Bon,Citec_Cyclea_2.5_A_c,,,,2019-01-25,5.763431,45.175417
768,"45.16423,5.7647",Nord-Est,Saint Martin d'Hères,,Avenue Jacques Prévert / Impasses Eugène Varlin,,VER,verre,CA,aérien,2.5,Citec,Cyclea,,,Prestataire,Lely,Bon,Citec_Cyclea_2.5_A_c,,,,,5.764697,45.16423
763,"45.17184,5.76775",Nord-Est,Saint Martin d'Hères,,Rue Commandant Komarov (face au n° 13) / Parking cimetière des Alloves,,VER,verre,CA,aérien,4.0,Citec,Cyclea,,,Prestataire,Lely,Bon,Citec_Cyclea_4_A_c,,,,2012 (juillet),5.767752,45.171843
778,"45.16681,5.75219",Nord-Est,Saint Martin d'Hères,,Rue Georges Sand / Rue Frédéric Chopin / Face MJC Sud Paul Bert / Espace Culturel René Proby,,VER,verre,CA,aérien,3.0,Citec,Cyclea,,,Prestataire,Lely,HS,Citec_Cyclea_3_A_c,,,,,5.752194,45.166815
764,"45.17222,5.76537",Nord-Est,Saint Martin d'Hères,,Rue Normandie Niemen (face au n° 1) / Les Alloves / Terminus bus,,VER,verre,CA,aérien,2.5,Citec,Cyclea,,,Prestataire,Lely,Bon,Citec_Cyclea_2.5_A_c,,,,,5.765371,45.172218
61,"45.15096,5.71637",Sud,Echirolles,,19 Avenue de Grugliasco / Bowling (parking),,VER,verre,CE,enterré,3.0,Citec,,,,Prestataire,Lely,Usé,Citec__3_E_c,,,,,5.716375,45.150963
98,"45.15563,5.70281",Sud,Echirolles,,2 Avenue René Sutter / Rue Roger Lorraine / Viscose,,VER,verre,CA,aérien,3.0,EcoVert,Inconnu,,,Prestataire,Lely,Usé,EcoVert_Inconnu_3_A_c,,,,,5.702815,45.155633
58,"45.15863,5.71424",Sud,Echirolles,,2 Rue de Bretagne (Face à Moto Labo),,VER,verre,CA,aérien,3.0,UTPM,Ecobox,,,Prestataire,Lely,Bon,UTPM_Ecobox_3_A_c,,,,2012 (février),5.714236,45.158628
1266,"45.1581,5.70399",Sud,Echirolles,,2 Rue de la Viscose / Rue du Tremblay / Le Rondeau,,VER,verre,CA,aérien,3.0,Quadria,Linéance,,,Prestataire,Lely,Bon,Quadria_Linéance_3_A_c,,2017-11-16,,,5.703985,45.1581
814,"45.18443,5.76243",Nord-Est,Saint Martin d'Hères,,12-18 Rue Jean Jacques Rousseau (face au 11 - Résidence Les Sapins Bleus),,VER,verre,CA,aérien,2.5,Citec,Cyclea,,,Prestataire,Lely,Usé,Citec_Cyclea_2.5_A_c,,,,,5.762425,45.184431
810,"45.17989,5.76542",Nord-Est,Saint Martin d'Hères,,13 Avenue du Bataillon Carmagnole Liberté / Impasse du Pontet (devant commerces),,VER,verre,CA,aérien,3.0,Citec,Cyclea,,,Prestataire,Lely,Bon,Citec_Cyclea_3_A_c,,,,,5.765424,45.179892
812,"45.18351,5.766",Nord-Est,Saint Martin d'Hères,,40-52 Rue Jean Jacques Rousseau / 50 Rue Alfonse Allais 1,,VER,verre,CA,aérien,2.5,Citec,Cyclea,,,Prestataire,Lely,Bon,Citec_Cyclea_2.5_A_c,,,,,5.765999,45.183507
813,"45.18351,5.76596",Nord-Est,Saint Martin d'Hères,,40-52 Rue Jean Jacques Rousseau / 50 Rue Alfonse Allais 2,,VER,verre,CA,aérien,4.0,Citec,Cyclea Max,,,Prestataire,Lely,Sale,Citec_Cyclea Max_4_A_c,,,,,5.76596,45.183508
807,"45.18099,5.76256",Nord-Est,Saint Martin d'Hères,,Rue Alfred Gueymard / Impasse Alfred Gueymard,,VER,verre,CA,aérien,3.0,Citec,Cyclea,,,Prestataire,Lely,Bon,Citec_Cyclea_3_A_c,,,,,5.762559,45.180992
839,"45.07169,5.64218",Grand-Sud,Saint Paul de Varces,,Salle des fêtes / 50 Chemin de la Charrière Chaude,,VER,verre,CA,aérien,4.0,SNNECO,Eco-DI,,,Prestataire,Lely,Bon,SNNECO_Eco-DI_4_A_c,,,,,5.642181,45.071692
1131,"45.08652,5.73065",Grand-Sud,Champ sur Drac,,Navarre / Musée / Avenue Jean Navarre / Rue du Vercors,,VER,verre,CE,enterré,0.0,Astech,,,,Prestataire,Lely,Bon,Astech__0_E_k,,,,,5.730651,45.086525
938,"45.04042,5.67118",Grand-Sud,Vif,,Le Crozet / Rue de la Croix,,VER,verre,CA,aérien,4.0,Citec,Cyclea,,,Prestataire,Lely,Bon,Citec_Cyclea_4_A_c,,,,,5.67118,45.040423
831,"45.20344,5.71754",Nord-Ouest,Saint Martin Le Vinoux,,1-3 Rue du 8 mai 1945 / Cimetière village,,VER,verre,CA,aérien,3.0,Plastic Omnium,Citybulle,,,Prestataire,Lely,Bon,Plastic Omnium_Citybulle_3_A_c,,,,,5.717543,45.203436
830,"45.21451,5.70988",Nord-Ouest,Saint Martin Le Vinoux,,2520 Route de Narbonne / Hameau de Narbonne,,VER,verre,CA,aérien,3.0,Plastic Omnium,Citybulle,,,Prestataire,Lely,Bon,Plastic Omnium_Citybulle_3_A_c,,,,,5.709885,45.214514
834,"45.21449,5.6958",Nord-Ouest,Saint Martin Le Vinoux,,29 Rue Pierre Sémard / Rue Jean Moulin / Epicerie / Garage Renault,,VER,verre,CA,aérien,3.0,Citec,Cyclea,,,Prestataire,Lely,Usé,Citec_Cyclea_3_A_c,,,,,5.695797,45.214495
108,"45.14515,5.70097",Sud,Echirolles,,23 Avenue Danielle Casanova / entrée copropriété / en face pharmacie,,VER,verre,CA,aérien,2.0,UTPM,Ecobox,,,Prestataire,Lely,Sale,UTPM_Ecobox_2_A_c,,,,,5.700972,45.145148
853,"45.2124,5.65559",Nord-Ouest,Sassenage,,Chemin des Vergnats (accès cimetière du Bourg) / Rue des Engenières / Route de Villard de Lans RD 531 (rond point),,VER,verre,CA,aérien,4.0,Citec,Cyclea,Citec 4m3 crochet,,Prestataire,Lely,Bon,UTPM_PV400_4_A_c,,,,2018-06-26,5.655591,45.212404
866,"45.2065,5.66422",Nord-Ouest,Sassenage,,21-23 Rue du Billery / Esplanade mairie / devant logette,,VER,verre,CA,aérien,3.0,UTPM,Ecobox,,,Prestataire,Lely,Bon,UTPM_Ecobox_3_A_c,,,,2013 (mars),5.664217,45.206495
